CityId,CityName,Latitude,Longitude,PopLog
379,Budapest,47.4983815,19.0404707,6.240559999999999
380,Debrecen,47.531399,21.6259782,5.317215
381,Miskolc,48.1031503,20.7901985,5.222256
382,Szeged,46.25463120000001,20.1486016,5.230582
383,Pecs,46.0763222,18.228074600000006,5.195349
384,Gyor,47.687609,17.6346815,5.119137
385,Nyiregyhaza,47.9557802,21.7167982,5.070621
386,Kecskemet,46.9080769,19.6928133,5.057765
387,Szekesfehervar,47.1910169,18.410811,5.007415
388,Szombathely,47.2291184,16.6187625,4.899536
389,Szolnok,47.1754555,20.1946818,4.8712279999999994
390,Tatabanya,47.5837788,18.3980308,4.845117
391,Kaposvar,46.35646920000001,17.788688600000004,4.830499
392,Bekescsaba,46.6849789,21.0866918,4.804494
393,Zalaegerszeg,46.8415803,16.8456316,4.791333
394,Veszprem,47.0928058,17.9140147,4.806343
395,Erd,47.377294899999995,18.9214718,4.81476
396,Eger,47.8989887,20.3743665,4.749474
397,Sopron,47.6803063,16.5983457,4.788098000000001
398,Dunaujvaros,46.9670241,18.9397061,4.681332
399,Nagykanizsa,46.4548261,16.992392300000002,4.692864
1682,Szentendre,47.6677606,19.0760467,4.419129
1702,Esztergom,47.7856977,18.7403349,4.483359
1722,Budakeszi,47.5099444,18.929382,4.1615779999999996
1742,Vac,47.778287299999995,19.1278294,4.541704
1762,Budaors,47.4600185,18.9541818,4.4713650000000005
1782,Godollo,47.60528710000001,19.3535185,4.53367
1802,Pomaz,47.64682120000001,19.0236304,4.233022
1822,Baja,46.178496700000004,18.9511186,4.572058
1842,Szekszard,46.3484884,18.701663,4.522588
1862,Gyongyos,47.7799838,19.9291176,4.510344
1882,Dunakeszi,47.6316697,19.1294055,4.605671
1902,Szigetszentmiklos,47.345765,19.0409037,4.542539
1922,Balassagyarmat,48.07688320000001,19.2926037,4.207715
1942,Budakalasz,47.6192785,19.0468565,4.021603
1962,Siofok,46.9071694,18.0541598,4.386945
1982,Tata,47.6500863,18.3181275,4.396304
2002,Jaszbereny,47.5030505,19.9117887,4.43014
2003,Solymar,47.5898936,18.9352034,4.012078
2022,God,47.6834336,19.1341568,4.268695
2023,Gyula,46.64386560000001,21.2747575,4.500772
2042,Torokbalint,47.43495789999999,18.9130312,4.133123
2062,Cegled,47.1716447,19.7977516,4.577239
2063,Keszthely,46.7675081,17.2462801,4.320043
2082,Szazhalombatta,47.31719920000001,18.9120948,4.27637
2083,Paks,46.6229468,18.8589364,4.2902569999999995
2084,Mosonmagyarovar,47.8731793,17.2722342,4.514812999999999
2102,Dombovar,46.3778989,18.1332865,4.289901
2103,Salgotarjan,48.09606760000001,19.8005642,4.5619
2104,Tiszaujvaros,47.92803410000001,21.046705600000006,4.218982
2105,Dunaharaszti,47.359976,19.0953357,4.30664
2122,Sarospatak,48.3216823,21.5655524,4.100026000000001
2142,Papa,47.326108700000006,17.4705293,4.505855
2143,Kiskunfelegyhaza,46.7113263,19.8502905,4.476716000000001
2144,Hodmezovasarhely,46.4171344,20.3196068,4.667658
2145,Kazincbarcika,48.2544414,20.6223251,4.457337
2146,Pilisvorosvar,47.6210717,18.9115602,4.138871
2147,Kiskunhalas,46.4277979,19.4834524,4.453730999999999
2342,Piliscsaba,47.6329416,18.8261229,3.923296
2343,Komarom,47.79244415,18.104413870803587,4.295105
2742,Kalocsa,46.5230265,18.9825043,4.2294
2743,Ajka,47.1056579,17.5587276,4.463266
2744,Nagykovacsi,47.5762363,18.882064,3.8385339999999997
2942,Fot,47.612587100000006,19.1980105,4.278021
2943,Pecel,47.4911201,19.3446801,4.188562999999999
2944,Balatonfured,46.9567254,17.888892000000006,4.131362
3142,Hatvan,47.6683971,19.6743874,4.306618
3143,Mako,46.2150438,20.4751022,4.372415
3342,Koszeg,47.3894949,16.5406843,4.081167
3542,Mor,47.37195870000001,18.2094428,4.153967
3543,Kisvarda,48.2257593,22.0784247,4.216773
3742,Veresegyhaz,47.655235,19.2868815,4.227681
3942,Oroshaza,46.5603339,20.6693477,4.461048
3943,Biatorbagy,47.47394420000001,18.8232855,4.107379
3944,Ozd,48.2196425,20.295498600000002,4.528274
3945,Dunafoldvar,46.810432,18.9222921,3.937819
4142,Paszto,47.9210914,19.6998353,3.980867
4143,Dabas,47.1729302,19.3229242,4.225645
4144,Vecses,47.4094382,19.2648259,4.320354
4342,Tapolca,46.8820972,17.4389619,4.193013
4542,Mezokovesd,47.8097525,20.5660889,4.218483
4543,Bicske,47.4907066,18.6358046,4.066028
4544,Kistarcsa,47.54473220000001,19.2636378,4.078276
4742,Bonyhad,46.29842120000001,18.532191,4.138018
4743,Oroszlany,47.4897011,18.3148401,4.270143
4744,Hajduszoboszlo,47.4431291,21.3902995,4.3675239999999995
4942,Monor,47.35274329999999,19.4468404,4.2647
5142,Diosd,47.406256,18.9448604,3.978728
5143,Rackeve,47.1609765,18.9436266,4.000955
5144,Pilisszentivan,47.6095461,18.8969359,3.6394870000000004
5145,Szarvas,46.8621434,20.5521466,4.230628
5342,Dorog,47.7223403,18.7313867,4.079036
5343,Nyergesujfalu,47.7607852,18.5545212,3.8780620000000003
5344,Tolna,46.488344700000006,18.5050005,4.055646
5345,Balatonalmadi,47.035766,18.0200896,3.9622269999999995
5346,Szentes,46.6524049,20.2566408,4.454479
5542,Kormend,47.0126655,16.6010475,4.067294
5543,Kiskoros,46.6206925,19.2836756,4.154089
5742,Celldomolk,47.2579643,17.1521883,4.0328599999999994
5743,Paty,47.514704,18.8271319,3.859258
5942,Gyomro,47.4223375,19.394503,4.221936
6142,Nagykoros,47.03742570000001,19.7863141,4.387976999999999
6143,Csomor,47.5489158,19.2242144,3.96506
6144,Szigetvar,46.0474395,17.799351100000006,4.032296
6145,Kisujszallas,47.2162053,20.7546669,4.055646
6146,Varpalota,47.198695,18.138157,4.307603
6342,Mateszalka,47.9539113,22.3208477,4.229349
6343,Ecser,47.44450250000001,19.3184563,3.569842
6542,Martonvasar,47.3141209,18.7886273,3.7642510000000002
6543,Csongrad,46.4515164,20.227760600000003,4.226497
6742,Sarvar,47.2517426,16.9342165,4.169204
6743,Komlo,46.1911673,18.2613778,4.398287
6744,Barcs,45.96053660000001,17.463434200000002,4.056066
6745,Tamasi,46.62939779999999,18.2850331,3.92371
6746,Albertirsa,47.2457295,19.6127835,4.093772
6747,Satoraljaujhely,48.39609779999999,21.6561497,4.18625
6942,Pannonhalma,47.5502015,17.7541679,3.595165
7142,Karcag,47.314646,20.9240941,4.3005949999999995
7143,Tiszafured,47.6130877,20.7502258,4.02914
7144,Torokszentmiklos,47.1793568,20.409153,4.323108
7145,Heviz,46.79060379999999,17.1834489,3.640978
7343,Hajduboszormeny,47.6716617,21.5078944,4.495627
7542,Gyal,47.3845453,19.2173066,4.3708089999999995
7742,Pilis,47.2860696,19.5467411,4.059185
7743,Tarnok,47.3668787,18.8660065,3.966236
7942,Balatonboglar,46.7785548,17.6553063,3.7732010000000002
7943,Sulysap,47.45426060000001,19.5214828,3.9186589999999994
7944,Solt,46.8022565,19.0046438,3.7983050000000005
8142,Mohacs,45.9933836,18.6821079,4.269606
8143,Mezotur,47.0004724,20.6299513,4.238974
8144,Marcali,46.5833484,17.412300199999994,4.0632209999999995
8145,Tab,46.7351826,18.0389133,3.627571
8342,Balatonlelle,46.7867617,17.696520899999996,3.6753199999999997
8343,Velence,47.2353177,18.6605263,3.729084
8344,Ullo,47.3850605,19.3453263,4.058236
8345,Lenti,46.6245749,16.5366668,3.9015129999999996
8542,Zsambek,47.5483115,18.7174344,3.73878
8543,Nagyatad,46.229143,17.357096399999996,4.030762
8544,Ocsa,47.3011895,19.2313617,3.960756
8742,Abony,47.1887402,20.0047823,4.172486
8743,Tokol,47.3226787,18.9632427,4.017701000000001
8744,Taksony,47.32997810000001,19.0623899,3.8057730000000003
8745,Mezobereny,46.82499620000001,21.0297382,4.037267
8942,Puspokladany,47.3195803,21.1123019,4.167258
8943,Szigethalom,47.3245067,19.0001884,4.241447
8945,Tiszavasvari,47.956619,21.3680532,4.098678
8946,Kapuvar,47.59370429999999,17.0274824,4.015066
8947,Bekes,46.7862993,20.9820736,4.295853
8948,Fonyod,46.7467521,17.54946,3.6746769999999995
9142,Ercsi,47.2519697,18.8983773,3.903036
9143,Nagykata,47.4138187,19.7503736,4.099093
9144,Aszod,47.6532732,19.4747432,3.807129
9145,Halasztelek,47.363105,18.9811444,3.96895
9146,Mogyorod,47.5986636,19.2384215,3.801747
9342,Siklos,45.852096,18.2981568,3.9836709999999997
9343,Sarbogard,46.88743710000001,18.6196247,4.095098999999999
9542,Gardony,47.2029902,18.6261959,3.996818
9544,Tura,47.60935,19.594944199999997,3.888236
9545,Fertod,47.6216447,16.8645968,3.5392010000000003
9546,Soltvadkert,46.5820205,19.3942728,3.871164
9742,Turkeve,47.10924470000001,20.7358057,3.941561
9942,Etyek,47.4448813,18.7504665,3.64365
9943,Isaszeg,47.53033350000001,19.401700100000006,4.05679
9944,Tokaj,48.1235534,21.4113895,3.6847559999999997
9945,Zirc,47.2613795,17.8718188,3.851014
9946,Pusztaszabolcs,47.1385777,18.7576092,3.7779339999999997
9947,Szerencs,48.1633851,21.201088100000003,3.9590410000000005
9948,Pilisszentkereszt,47.6931455,18.9024298,3.3481099999999997
9949,Tiszakecske,46.9315289,20.1045358,4.050651
9950,Dunabogdany,47.7937922,19.0352037,3.512551
9951,Szentgotthard,46.952850700000006,16.2748541,3.946403
9952,Csorna,47.6134153,17.249795499999998,4.027309
9953,Orbottyan,47.6827581,19.263848,3.871515
9954,Telki,47.551193,18.8206574,3.590953
9955,Heves,47.7884409,20.1714412,4.019698
10142,Urom,47.5987004,19.0134262,3.864393
10342,Nagymaros,47.78911420000001,18.9587262,3.678518
10343,Kiskunlachaza,47.1903391,19.00569,3.9536629999999997
10344,Tat,47.7398038,18.654370800000002,3.727785
10345,Bataszek,46.1933095,18.7241126,3.805365
10346,Pilisszanto,47.6697354,18.886467,3.398461
10542,Maglod,47.444962200000006,19.359313600000004,4.0787830000000005
10742,Zalaszentgrot,46.9438023,17.0790205,3.8111050000000004
10743,Nyirbator,47.839511,22.1322309,4.079832
10744,Balatonfoldvar,46.8491197,17.879240300000006,3.31471
10745,Gyomaendrod,46.9358032,20.8260916,4.135896
10746,Zahony,48.4063743,22.1778835,3.5996650000000003
10942,Retsag,47.93032410000001,19.1375901,3.4616480000000003
10943,Tahitotfalu,47.75419160000001,19.084289,3.752509
10944,Leanyfalu,47.718888,19.0888422,3.5689050000000004
10945,Kondoros,46.7599676,20.7950557,3.7160870000000004
10946,Szecseny,48.0814012,19.5214674,3.7545010000000003
10947,Encs,48.3305743,21.1222112,3.7924620000000004
10948,Pilisborosjeno,47.606931,18.9918085,3.5280160000000005
10949,Kunszentmiklos,47.0257098,19.1234855,3.930185
11142,Szodliget,47.7299732,19.1473194,3.661907
11143,Dunavarsany,47.27896320000001,19.0661045,3.8739019999999997
11144,Bacsalmas,46.1274127,19.3319128,3.82588
11145,Nagytarcsa,47.52673529999999,19.2834412,3.5872620000000004
11146,Budajeno,47.555673,18.803804100000004,3.273464
11147,Sumeg,46.9784329,17.2811657,3.791691
11342,Jaszarokszallas,47.64454170000001,19.9786517,3.892429
11343,Gyonk,46.5553541,18.4783275,3.3151300000000004
11344,Tihany,46.9122292,17.8917574,3.13258
11345,Kunszentmarton,46.8399054,20.2908813,3.922881
11346,Harta,46.6947199,19.0277119,3.515211
11347,Balatonszemes,46.806042,17.7789908,3.248709
11348,Kerepes,47.5616135,19.286907100000004,4.003762
11542,Fuzesabony,47.7485389,20.4142673,3.891035
11543,Berettyoujfalu,47.2247273,21.5355206,4.1809
11544,Kisber,47.4992603,18.0300173,3.7227980000000005
11545,Csopak,46.9734439,17.928852,3.216957
11742,Szeghalom,47.0213485,21.1693932,3.9597569999999997
11743,Cegledbercel,47.2150336,19.678569,3.644143
11744,Totkomlos,46.4115096,20.7366044,3.7619279999999997
11942,Racalmas,47.0259018,18.9393279,3.652053
12342,Domsod,47.094771,19.0070461,3.7551120000000004
12343,Csobanka,47.6436909,18.9672147,3.500374
12542,Janoshalma,46.2972264,19.3235909,3.951192
12543,Gomba,47.3703744,19.5311516,3.4730489999999996
12544,Tapioszecso,47.4506036,19.6066197,3.802979
12545,Csurgo,46.2642514,17.095087399999993,3.714833
12546,Boly,45.9692795,18.5161494,3.601625
12547,Tordas,47.34461500000001,18.7527252,3.32695
12548,Vasarosnameny,48.1267635,22.312647,3.938019
12549,Kecel,46.5237655,19.2533387,3.9388699999999996
12550,Labatlan,47.74508529999999,18.5015732,3.698275
12742,Erdokertes,47.67024470000001,19.308359,3.890533
12743,Visegrad,47.784891200000004,18.970577600000002,3.270213
12744,Jaszapati,47.5133704,20.1410061,3.9516769999999997
12942,Szentlorinc,46.0415605,17.988914,3.8355639999999998
12943,Galgaheviz,47.62225770000001,19.5558378,3.397071
13142,Lajosmizse,47.026289,19.5582094,4.044265
13342,Pecsvarad,46.1608411,18.4206938,3.6044419999999997
13542,Kozarmisleny,46.0487525,18.2860822,3.78597
13543,Martfu,47.0186153,20.2813933,3.8085480000000005
13544,Hajdunanas,47.8452241,21.4279002,4.22981
13742,Villany,45.8697644,18.4555208,3.3934
13743,Soskut,47.4047185,18.8305621,3.511215
13744,Balatonfuzfo,47.0620043,18.0409677,3.633368
13745,Mezohegyes,46.3139611,20.8194076,3.6984480000000004
13746,Toalmas,47.5095624,19.6637179,3.5277589999999996
13942,Kiskunmajsa,46.4906228,19.739312100000006,4.070629
13943,Fehergyarmat,47.9850963,22.5167524,3.8954779999999998
14142,Nagykallo,47.874296,21.8434965,3.9943169999999997
14143,Kartal,47.66792,19.5311002,3.769968
14144,Janossomorja,47.7859228,17.136422800000002,3.7717339999999995
14145,Szada,47.6363477,19.3117491,3.66764
14342,Balmazujvaros,47.6116279,21.3437378,4.239399
14343,Harkany,45.8477907,18.2359978,3.609061
14344,Dany,47.5222089,19.5508325,3.6555230000000005
14346,Sajoszentpeter,48.2183544,20.7087764,4.077913
14347,Simontornya,46.756962,18.5435129,3.605089
14542,Bugyi,47.221978,19.149033600000006,3.733839
14543,Csakvar,47.3918045,18.464064,3.7177540000000002
14544,Zanka,46.872930600000004,17.6833856,2.9670799999999997
14742,Tapioszentmarton,47.340459,19.744694,3.7270529999999997
14743,Fertoszentmiklos,47.588634000000006,16.877426800000002,3.590061
14744,Szigetmonostor,47.6896702,19.1009549,3.3560260000000004
14745,Szob,47.8183245,18.8727585,3.464638
14746,Batonyterenye,47.9957901,19.8276504,4.1005080000000005
14747,Bag,47.6337331,19.4792099,3.5891669999999998
14748,Kunhegyes,47.3703721,20.6310453,3.874076
14749,Szokolya,47.8667937,19.0089279,3.2574389999999998
14750,Nyiradony,47.6913589,21.9053502,3.891983
14751,Veroce,45.8331834,17.3853058,3.5734519999999996
14752,Csolnok,47.6946536,18.717583800000003,3.5122839999999997
14753,Mindszent,46.524022,20.186003,3.825101
14754,Ujszasz,47.28444260000001,20.0702678,3.803457
14755,Pokaszepetk,46.9256917,16.9685234,2.994757
14756,Farmos,47.3616376,19.8489595,3.5588290000000002
14757,Devavanya,47.0313464,20.9620971,3.8820690000000004
14758,Jaszfenyszaru,47.5692314,19.7168149,3.7498139999999998
14759,Sukoro,47.2419579,18.59782,3.11227
14760,Edeleny,48.293613,20.7340134,4.000824
14761,Zamardi,46.8800183,17.945992800000006,3.373464
14942,Perbal,47.5912451,18.759802,3.350054
14943,Gyorujbarat,47.6133844,17.636573300000006,3.794697
15142,Kistelek,46.4704606,19.9812009,3.846337
15143,Kismaros,47.8265758,19.0126276,3.33264
15144,Tiszafoldvar,46.9803541,20.254116600000003,4.046105000000001
15145,Almasfuzito,47.7264305,18.262513,3.3372599999999997
15146,Battonya,46.2858683,21.0218929,3.7454650000000003
15147,Putnok,48.2942607,20.4342869,3.821775
15342,Diosjeno,47.9395202,19.0437008,3.444669
15343,Sandorfalva,46.3657365,20.1042174,3.900531
15344,Mezokovacshaza,46.4073383,20.923600600000004,3.781684
15542,Tokod,47.7231661,18.6588221,3.624798
15544,Vasvar,47.0490649,16.7998821,3.6156339999999996
15545,Inarcs,47.2607788,19.3288579,3.6463059999999996
15546,Hajdudorog,47.8157169,21.500684600000003,3.948804
15742,Hajos,46.3982552,19.117199,3.4960989999999996
15942,Petfurdo,47.1599702,18.1209474,3.6736660000000003
15943,Babolna,47.642224,17.978746700000002,3.562768
15944,Polgar,47.8707939,21.1141032,3.898451
15945,Buk,47.3833959,16.753304999999997,3.543199
16143,Morahalom,46.2163238,19.8894811,3.782974
16144,Felsozsolca,48.1095123,20.8591603,3.829304
16342,Zsambok,47.54312210000001,19.606613600000006,3.372175
16343,Komadi,47.0013136,21.488646,3.713659
16344,Hosszuheteny,46.16130379999999,18.3527689,3.542327
16346,Veszto,46.9241978,21.2598799,3.8247760000000004
16348,Fegyvernek,47.2526516,20.525942800000006,3.807197
16349,Tapiogyorgye,47.3341052,19.9519935,3.5424519999999995
16350,Lajoskomarom,46.8417783,18.337205,3.324282
16351,Sarkad,46.74228710000001,21.3836478,4.000477
16353,Tok,47.5645624,18.7316561,3.131298
16354,Repcelak,47.4195089,17.015428699999998,3.382737
16355,Dusnok,46.3900215,18.958962,3.458336
16356,Hevizgyork,47.6303011,19.5190457,3.492062
16542,Perkata,47.0479725,18.7901236,3.5957169999999996
16543,Bodajk,47.3227042,18.233096,3.607562
16544,Tiszalok,48.0187144,21.3762342,3.741703
16545,Ujfeherto,47.8008977,21.6829931,4.11411
16546,Szikszo,48.2015243,20.9275021,3.7281910000000003
16547,Abadszalok,47.4760139,20.5997748,3.5935080000000004
16548,Adony,47.1208993,18.8631074,3.592399
16549,Sellye,45.87354439999999,17.8514053,3.4396480000000005
16550,Tapioszele,47.3321179,19.875391600000004,3.786893
16551,Nagyvenyim,46.9561402,18.858991600000003,3.607562
16552,Koka,47.4891593,19.580608899999998,3.6465019999999995
16554,Revfulop,46.828315,17.6303514,3.0261240000000003
16555,Letenye,46.433204,16.7230843,3.6077769999999996
16556,Felsopakony,47.3432696,19.2362156,3.5369370000000004
16557,Herceghalom,47.496236,18.7448861,3.3293980000000003
16743,Hegyeshalom,47.9144882,17.1558011,3.541454
16744,Mezocsat,47.8175357,20.903168,3.770189
16745,Ibrany,48.122594,21.7102156,3.8351830000000002
16746,Zalalovo,46.8461983,16.5852286,3.480151
16747,Szabadszallas,46.8752316,19.2225016,3.770557
16748,Tass,47.0200511,19.0321758,3.4632959999999997
16749,Gyuro,47.3676404,18.7408651,3.0982979999999998
16750,Dunaegyhaza,46.83661160000001,18.9535749,3.177248
16751,Ajak,48.1778501,22.0522301,3.547529
16752,Izsak,46.800917,19.3595369,3.771146
16754,Dombrad,48.2256872,21.9244483,3.591065
16755,Szigliget,46.80143620000001,17.4331745,2.915927
16756,Nagymanyok,46.2824922,18.459239,3.3565989999999997
16757,Uri,47.4135085,19.523849399999996,3.4289440000000004
16942,Lorinci,47.7400504,19.6773099,3.7693769999999995
16943,Korosladany,46.9618183,21.0774039,3.661055
16944,Orkeny,47.1297585,19.4309024,3.696007
16945,Ersekvadkert,47.9960713,19.1989343,3.5436959999999997
16946,Kapolnasnyek,47.237503,18.6722759,3.5575069999999998
16947,Balatonszarszo,46.82629179999999,17.8341937,3.275311
16948,Sutto,47.7573845,18.44347,3.3044910000000005
16949,Fuzesgyarmat,47.10455820000001,21.210613100000003,3.7532
17142,Pilisjaszfalu,47.6541958,18.7935633,3.201943
17143,Tapiobicske,47.3622153,19.6867465,3.537693
17144,Dunavecse,46.9163658,18.971653600000003,3.595165
17145,Cece,46.7705943,18.6284199,3.3977660000000003
17146,Szank,46.54982,19.6756762,3.3747480000000003
17147,Derecske,47.3539466,21.5709171,3.9496830000000003
17148,Csaszartoltes,46.4229794,19.1784944,3.366049
17149,Tompa,46.2049292,19.537401100000004,3.657343
17150,Nyekladhaza,47.9922271,20.8305698,3.699057
17151,Szigetcsep,47.2671482,18.9672674,3.365301
17152,Dunaszeg,47.7696461,17.5400735,3.3023309999999997
17153,Nadudvar,47.4285575,21.1593087,3.942901
17154,Ivancsa,47.14733270000001,18.8311498,3.462248
17155,Szigetszentmarton,47.2286092,18.9576052,3.328176
17156,Sasd,46.2559563,18.1065598,3.516139
17157,Kulcs,47.0529379,18.9163165,3.4358440000000003
17158,Lanycsok,46.0048239,18.6236136,3.396025
17159,Ujkigyos,46.5952164,21.024918300000003,3.718917
17160,Pocsmegyer,47.7158378,19.0956199,3.3055660000000002
17161,Gellenhaza,46.7601687,16.783681899999998,3.187521
17342,Mende,47.4303237,19.4552503,3.6236629999999996
17343,Nagyigmand,47.6350173,18.076194,3.469527
17344,Alsozsolca,48.0703015,20.8819968,3.773567
17542,Bekesszentandras,46.8717052,20.4851283,3.575765
17742,Tet,47.51595220000001,17.5166682,3.588496
17743,Sukosd,46.2908883,18.9959263,3.5673790000000003
17744,Piliscsev,47.673439,18.8184572,3.373647
17745,Kosd,47.8068226,19.1758423,3.420781
17942,Mezofalva,46.9324818,18.7790405,3.6699669999999998
18142,Szederkeny,45.9994626,18.4535831,3.262451
18542,Kerekegyhaza,46.9358768,19.4825067,3.79934
18543,Malyi,48.0147562,20.8236937,3.613947
18544,Bacsbokod,46.12402470000001,19.1558176,3.418135
18742,Melykut,46.2151957,19.3792097,3.705949
18743,Iklad,47.6593942,19.443391100000003,3.3207690000000003
18942,Karad,46.693453399999996,17.8385506,3.168203
19142,Polgardi,47.05639779999999,18.3067942,3.842859
19143,Rakoczifalva,47.0898193,20.2343365,3.729084
19144,Vacratot,47.7094372,19.236304500000006,3.271842
19145,Szegvar,46.5851274,20.221903,3.647383
19342,Nagyhalasz,48.1322422,21.7593891,3.7473339999999995
19343,Jaszdozsa,47.566305,20.0157116,3.324282
19344,Ivad,48.0207169,20.0608218,2.5634810000000003
19345,Szod,47.7191669,19.1819507,3.523096
19346,Ujhartyan,47.2200186,19.3841049,3.4440449999999996
19347,Balkany,47.770088,21.860131600000003,3.7934410000000005
19542,Balatonfenyves,46.7176727,17.4945314,3.265761
19543,Tarjan,47.6088065,18.5063222,3.4276480000000005
19544,Abrahamhegy,46.8147826,17.571499600000006,2.64836
19545,Tiszaalpar,46.8219617,19.9893055,3.6908160000000003
19546,Medgyesegyhaza,46.4981379,21.0280887,3.5671440000000003
19547,Csomad,47.6549475,19.2367726,3.198382
19742,Szajk,45.9869356,18.5345339,2.93044
19743,Beled,47.4661125,17.0898826,3.407051
19744,Bordany,46.3216659,19.9216744,3.5134839999999996
19745,Deszk,46.218246,20.2378885,3.561578
19747,Foldes,47.2881601,21.3642071,3.601843
19748,Vonyarcvashegy,46.7641925,17.3095703,3.360025
19749,Ersekcsanad,46.2519609,18.9793252,3.451479
19750,Alsonemedi,47.3146713,19.165704,3.716504
19751,Oriszentpeter,46.8415658,16.4182244,3.067071
19752,Dunaszentgyorgy,46.530011,18.8118978,3.4014010000000003
19753,Devecser,47.104052,17.4364185,3.635986
19755,Hernad,47.1650755,19.4070801,3.614264
19942,Vitnyed,47.587121,16.979981600000002,3.133219
19943,Csorvas,46.6348863,20.8347918,3.697317
19944,Sarisap,47.6743594,18.6813525,3.4326489999999996
19945,Mad,48.191851799999995,21.2742214,3.327972
19946,Badacsonytomaj,46.8057988,17.514692999999998,3.3180629999999995
19947,Lakitelek,46.8736335,20.0003712,3.6485550000000004
19948,Val,47.3676021,18.6765141,3.4015730000000004
20142,Hajduhadhaz,47.6844833,21.6691853,4.095448
20342,Kakucs,47.2416179,19.3667431,3.437275
20343,Tarcal,48.1298284,21.3455658,3.4508650000000003
20344,Ulles,46.3371407,19.8486229,3.497206
20542,Nagydorog,46.62358370000001,18.6554107,3.4179699999999995
20543,Balatonkenese,47.0349778,18.1079681,3.504471
20544,Halaszi,47.8909561,17.329325100000002,3.4731949999999996
20545,Decs,46.2843291,18.7600689,3.6073480000000004
20546,Pellerd,46.0348577,18.153296,3.3441959999999997
20547,Nagyszenas,46.6715027,20.672749300000003,3.7050080000000003
20548,Baj,47.6489476,18.3644373,3.457882
20742,Vaskut,46.111566,18.9854333,3.534153
20743,Balatonvilagos,46.9641731,18.159314,3.071514
20744,Akaszto,46.6909821,19.206353600000003,3.5092019999999997
20942,Bajot,47.7258495,18.5579539,3.192289
20943,Kenderes,47.2477469,20.6720305,3.6671730000000005
20944,Kiskore,47.4994568,20.4925043,3.4237370000000005
20945,Zalakaros,46.5607855,17.1221529,3.266232
20946,Korostarcsa,46.8768155,21.0233046,3.393926
20947,Jaszszentandras,47.5836296,20.172738100000004,3.3864989999999997
20948,Nyaregyhaza,47.2627494,19.502638600000004,3.5859120000000004
20949,Pakozd,47.2169395,18.542766600000004,3.505014
21342,Toszeg,47.1005785,20.1474605,3.6414739999999997
21343,Per,47.6120536,17.796963100000003,3.367915
21344,Petofibanya,47.7661279,19.7019335,3.439964
21345,Szalkszentmarton,46.9755241,19.0132851,3.4513260000000003
21346,Gyermely,47.5910684,18.6439003,3.161368
21542,Nograd,47.98736160000001,19.5472495,3.155336
21543,Algyo,46.335276,20.2084058,3.720242
21544,Egervar,46.9355693,16.8536837,3.002598
21742,Berekfurdo,47.3863531,20.837934,3.004321
21743,Janoshida,47.3839188,20.0565734,3.3845330000000002
21744,Ebes,47.4712353,21.4914725,3.642465
21942,Abasar,47.7947098,20.00018,3.397593
22142,Balatonmariafurdo,46.7015468,17.407499100000006,2.817565
22342,Mecseknadasd,46.2244052,18.4645171,3.178689
22542,Vacszentlaszlo,47.5735196,19.5366483,3.3205620000000002
22543,Gesztered,47.7645074,21.7782735,3.213252
22742,Cibakhaza,46.9590236,20.2062362,3.636187
22743,Gonyu,47.7331432,17.827923100000003,3.496238
22744,Fadd,46.4663938,18.8252567,3.635182
22745,Zsombo,46.3297803,19.9719943,3.550473
22746,Zebegeny,47.8002213,18.9090008,3.069298
22747,Emod,47.9339466,20.8165452,3.689753
22946,Bank,47.9258885,19.1735916,2.8208580000000003
22947,Szajol,47.1757484,20.3006435,3.572174
22948,Teglas,47.7156887,21.6746328,3.821972
22949,Lebeny,47.73549420000001,17.3906258,3.49955
22950,Magyarszek,46.1953947,18.1961806,3.03543
22951,Herend,47.1328461,17.752335600000006,3.5236160000000005
22952,Matranovak,48.03878579999999,19.9814173,3.226858
23151,Kornye,47.5475792,18.3318516,3.649432
23351,Csepreg,47.401594,16.7078418,3.5294300000000005
23352,Many,47.5299128,18.656228600000002,3.380754
23353,Elek,46.5294265,21.2526107,3.682687
23354,Asotthalom,46.1951162,19.7804054,3.600537
23355,Dunapataj,46.6442755,18.9990105,3.500922
23356,Hajdusamson,47.5989514,21.7537139,4.117437000000001
23357,Nemesnadudvar,46.3392074,19.0521601,3.2557549999999997
23551,Kunmadaras,47.4284725,20.795297100000006,3.7238660000000006
23552,Jaszfelsoszentgyorgy,47.50861550000001,19.7926903,3.295347
23554,Magocs,46.349833,18.2285903,3.3780339999999995
23751,Kapolcs,46.9559035,17.6089272,2.597695
23752,Vamospercs,47.52672929999999,21.8987164,3.7212330000000002
23753,Pusztazamor,47.4024957,18.7855309,3.083144
23754,Acs,47.7104229,18.015613300000002,3.842921
23951,Kemence,48.0171336,18.891553,2.993436
23952,Egerag,45.981479,18.3048844,2.986772
24151,Mogyorosbanya,47.727491,18.6024067,2.9523080000000004
24551,Berhida,47.11311060000001,18.1328211,3.775756
24552,Domaszek,46.2460831,19.9992805,3.696706
24553,Baracs,46.9139521,18.8665281,3.542078
24554,Tiszaszentimre,47.4913975,20.7233655,3.319314
24751,Apostag,46.8832449,18.9673417,3.289589
24752,Zomba,46.4117861,18.5639262765116,3.311118
24753,Janoshaza,47.1198765,17.1642699,3.3803919999999996
24951,Letavertes,47.3853112,21.8764089,3.850646
24952,Pilismarot,47.7848591,18.8747292,3.326336
25151,Kotaj,48.0478876,21.709878,3.6562900000000003
25152,Szabadbattyan,47.1177414,18.3677694,3.655619
25351,Gyongyostarjan,47.81173560000001,19.8668338,3.390935
25352,Gyorzamoly,47.7404316,17.578841699999998,3.4117879999999996
25353,Kunsziget,47.7393981,17.5152083,3.09899
25354,Iregszemcse,46.6930094,18.183599,3.409764
25551,Nyirtelek,48.0102668,21.6314008,3.8314220000000003
25552,Leanyvar,47.6816948,18.7710262,3.2365369999999998
25553,Nagykozar,46.065583200000006,18.3197191,3.284882
25554,Somberek,46.08085139999999,18.6599695,3.144263
25751,Tiszavarkony,47.0675873,20.1772149,3.183555
25752,Roszke,46.18724270000001,20.0354983,3.5018800000000003
25951,Seregelyes,47.111616999999995,18.578554999999998,3.6589650000000002
25952,Romhany,47.9215061,19.2590383,3.342225
26151,Bukkabrany,47.8877699,20.6834042,3.192567
26152,Szilvasvarad,48.1033386,20.3871297,3.220108
26351,Rajka,47.997068,17.1960871,3.408749
26352,Biharkeresztes,47.1313432,21.7191678,3.589726
26551,Abda,47.6976818,17.5409829,3.505286
26751,Palhaza,48.471582399999996,21.5110813,3.0
26951,Vachartyan,47.72700560000001,19.2537343,3.260071
26952,Mosonszentmiklos,47.7286866,17.4271186,3.3583160000000003
26953,Dunakiliti,47.9661325,17.288256699999998,3.268812
27151,Kony,47.6316029,17.3601631,3.417139
27351,Mandok,48.32214620000001,22.1901309,3.622007
27551,Martely,46.468773,20.238383,3.133219
27552,Jakabszallas,46.7613525,19.5989418,3.420121
27553,Tuzser,48.3434133,22.118663,3.518646
27554,Tapiosag,47.39924370000001,19.6303259,3.417472
27555,Beloiannisz,47.182134399999995,18.825404100000004,3.0413930000000002
27751,Ganna,47.2313133,17.527836699999998,2.385606
27951,Kunfeherto,46.362396,19.4132799,3.3040599999999998
27952,Demecser,48.1136996,21.9252073,3.631444
27953,Hereg,47.6464326,18.5116592,2.997386
27954,Gyorujfalu,47.72119470000001,17.608175600000006,3.1972810000000003
28151,Som,46.8076371,18.1397468,2.832509
28152,Baktaloranthaza,47.99942070000001,22.0793592,3.6336699999999995
28153,Ketegyhaza,46.5455442,21.1856277,3.602819
28154,Csabrendek,47.0131804,17.2895632,3.47261
28155,Petervasara,48.0190139,20.0985669,3.3916410000000003
28351,Szomod,47.6824922,18.3423516,3.3209769999999996
28352,Sarretudvari,47.2392356,21.189538100000004,3.4394910000000003
28353,Level,47.8930868,17.1999042,3.2496869999999998
28354,Hidas,46.2584081,18.4965098,3.304706
28551,Madocsa,46.6880707,18.9566974,3.2743889999999998
28552,Nagycenk,47.6034133,16.697743300000006,3.2915910000000004
28553,Lovasbereny,47.3031905,18.5628926,3.4263489999999996
28554,Biharnagybajom,47.2123973,21.2285194,3.436322
28555,Rackeresztur,47.272830600000006,18.835303,3.5199589999999996
28751,Bata,46.1285751,18.7749107,3.2284
28752,Turje,46.9841918,17.104588500000002,3.2174840000000002
28753,Peteri,47.3880659,19.4107817,3.3426199999999997
28951,Forraskut,46.3660316,19.9093047,3.3684730000000003
28952,Vaszar,47.4024091,17.5160785,3.160168
28953,Hegyko,47.62170310000001,16.7940826,3.1476759999999997
29151,Gavavencsello,48.161011,21.5934119,3.525304
29551,Arnot,48.1338948,20.8592384,3.4055169999999997
29552,Taborfalva,47.104349,19.4828926,3.519303
29553,Dag,47.662155600000006,18.7200529,2.972203
29554,Kelebia,46.1973923,19.6058436,3.412124
29555,Sirok,47.9308649,20.1957821,3.266232
29556,Bakonyszombathely,47.4763525,17.9594079,3.1525939999999997
29557,Kakasd,46.3462709,18.5927004,3.204933
29558,Fertorakos,47.716211,16.6527401,3.331225
29559,Alsomocsolad,46.3130764,18.245006399999998,2.5171959999999998
29560,Vertesszolos,47.6206061,18.3813459,3.500511
29951,Balastya,46.42075850000001,20.0140509,3.534407
29952,Nova,46.6851951,16.677948699999998,2.913284
29953,Poroszlo,47.6435536,20.6560717,3.4337699999999995
29954,Tevel,46.41248,18.4555663,3.163758
29955,Szendehely,47.8553893,19.1049747,3.1625650000000003
29956,Pincehely,46.6820239,18.4398335,3.35526
29957,Kaba,47.3576246,21.2742641,3.7732010000000002
29958,Fenyeslitke,48.2709162,22.0990803,3.371068
30151,Ocsod,46.9012341,20.3897025,3.505014
30152,Gyongyospata,47.8146817,19.7903391,3.393049
30153,Mezokeresztes,47.829883,20.6922479,3.5801260000000004
30154,Gorcsony,45.9696057,18.1354282,3.2208919999999996
30155,Besnyo,47.1915588,18.7935179,3.2501759999999997
30351,Mezoszilas,46.81583610000001,18.4749938,3.315551
30352,Eloszallas,46.8316103,18.8219252,3.33965
30353,Nagyoroszi,48.0038821,19.0913026,3.319522
30354,Csor,47.204993,18.2569467,3.262925
30355,Hogyesz,46.4956982,18.4188957,3.458789
30356,Kunagota,46.4233892,21.0489809,3.4080699999999995
30551,Beremend,45.7847076,18.4345572,3.4139699999999995
30552,Pitvaros,46.32130120000001,20.7361518,3.1274290000000002
30553,Apatfalva,46.1768429,20.5746455,3.468495
30554,Hortobagy,47.5826139,21.1525371,3.172311
30555,Kecsked,47.524018100000006,18.3076032,3.2893660000000002
31151,Nyul,47.5899223,17.6891435,3.6304279999999998
31152,Balatonakali,46.8830854,17.7518613,2.7972669999999997
31153,Vertessomlo,47.5111685,18.365137,3.125807
31353,Aba,47.0292178,18.5216608,3.6645480000000004
31551,Besenyszog,47.2960008,20.257149,3.527888
31552,Sojtor,46.6700808,16.8536814,3.177825
31553,Gyenesdias,46.7725171,17.286004100000003,3.5705430000000002
31554,Ostoros,47.8669963,20.4288434,3.426511
31555,Pusztavam,47.4293464,18.227975,3.382557
31751,Tiszapuspoki,47.2145342,20.3172973,3.302114
31752,Somogyvamos,46.568951299999995,17.6828598,2.9020029999999997
31951,Szentkiraly,46.9212567,19.9194732,3.2878019999999997
32151,Apc,47.796349600000006,19.6916338,3.406881
32551,Karancsbereny,48.1837308,19.7452275,2.959518
32552,Balatonbereny,46.710836,17.3193203,3.062958
32553,Foldeak,46.3193648,20.493784100000006,3.480725
32554,Nagybaracska,46.0429521,18.9054826,3.338656
32954,Markaz,47.8266709,20.0547595,3.242541
32955,Hort,47.689575,19.7826055,3.5595480000000004
32956,Bajna,47.6553343,18.598620800000006,3.2778379999999996
32957,Kophaza,47.63840560000001,16.6431637,3.321391
32958,Kunbaja,46.0882993,19.4240758,3.171726
33154,Borsodnadasd,48.1225672,20.2453048,3.478133
33156,Szirmabesenyo,48.15406420000001,20.7959687,3.63789
33354,Tengelic,46.5319473,18.7108467,3.352954
33554,Jaszszentlaszlo,46.5679444,19.7603182,3.3905819999999998
33754,Alcsutdoboz,47.4255086,18.6030614,3.160168
33756,Mocsa,47.6692513,18.181483,3.323871
33757,Villanykovesd,45.8805828,18.425254199999998,2.4424799999999998
33956,Keszu,46.0170456,18.1912934,3.108565
33957,Bacsborsod,46.09740220000001,19.1583982,3.077731
33958,Erdokurt,47.771907899999995,19.4646973,2.736397
34156,Szentmartonkata,47.4440884,19.6916458,3.69443
34157,Ujlengyel,47.2322939,19.444332,3.2380459999999998
34158,Valko,47.5641727,19.5100231,3.402089
34357,Galgagyork,47.7406871,19.3752627,3.019532
34359,Cered,48.1445255,19.967072299999998,3.025306
34360,Kesztolc,47.7130784,18.7975059,3.426186
34361,Magyarbanhegyes,46.4552631,20.9642866,3.3754809999999997
34362,Pusztafoldvar,46.5315946,20.8060399,3.230449
34363,Borcs,47.6850359,17.5007155,3.11059
34364,Bekecs,48.1515919,21.1711437,3.3785800000000004
34556,Bagyogszovat,47.5834947,17.367538699999994,3.108565
34557,Csakanydoroszlo,46.9752457,16.5046293,3.2380459999999998
34558,Egerszalok,47.87023350000001,20.3238326,3.2755419999999997
34559,Bokony,47.7322591,21.7524577,3.500785
34560,Csavoly,46.194385,19.1441018,3.2567180000000002
34561,Biharugra,46.9689132,21.595087399999997,2.923762
34756,Miske,46.4423649,19.0320713,3.21906
34757,Pazmandfalu,47.569642200000004,17.7839964,2.9881130000000002
34758,Kisgyalan,46.4238338,17.9774717,2.287802
34956,Harka,47.6342337,16.602306,3.283075
34957,Derekegyhaz,46.58214520000001,20.3559703,3.202761
35156,Egyek,47.6314647,20.8881462,3.689753
35356,Nemesvamos,47.0548638,17.8718258,3.4007110000000003
35357,Majs,45.9087344,18.600301,2.972666
35358,Vemend,46.1569155,18.6172563,3.164947
35556,Csenger,47.8363678,22.6794652,3.674861
35557,Csakbereny,47.3488619,18.3285962,3.072618
35558,Ecsed,47.7326559,19.772143,3.504199
35756,Lengyeltoti,46.6671072,17.641103899999994,3.508799
35956,Kaptalanfa,47.0658851,17.344129199999998,2.917506
35957,Tiszacsege,47.69754810000001,20.9935969,3.651375
36156,Gorbehaza,47.8188298,21.2379579,3.3805730000000005
36157,Csany,47.6473605,19.830145,3.3432120000000003
36158,Nyiracsad,47.6021228,21.9722891,3.5755339999999998
36356,Tiszaroff,47.3979955,20.438295,3.181844
36556,Belapatfalva,48.052978,20.348536300000006,3.476542
36557,Alsoors,46.98826629999999,17.9770715,3.168498
36558,Felsoszentmarton,45.8522747,17.705455,2.944976
36559,Szabadegyhaza,47.0767634,18.6924831,3.3360589999999997
36756,Jaszkarajeno,47.0537807,20.0683316,3.425208
36757,Otteveny,47.7250055,17.4885276,3.4676080000000002
36758,Jaszboldoghaza,47.36933610000001,19.9970587,3.2000290000000002
36759,Ikreny,47.6528383,17.5236747,3.2567180000000002
36760,Nagyharsany,45.847418,18.3998265,3.1959
36761,Abaujszanto,48.278706,21.1855002,3.4896769999999995
36956,Hercegszanto,45.950602,18.93584,3.273927
37156,Nagyecsed,47.8626738,22.3870647,3.7811809999999997
37157,Sarszentmihaly,47.1543829,18.3263027,3.4860050000000005
37158,Kallosemjen,47.858813700000006,21.93851350000001,3.5550940000000004
37356,Darany,45.9814198,17.5889964,2.956649
37357,Csengod,46.71259860000001,19.273494600000006,3.3053510000000004
37556,Balatonszabadi,46.8913312,18.133571,3.470704
37756,Gyarmat,47.4634405,17.488777300000002,3.0806259999999996
37757,Tapioszolos,47.2958317,19.8339025,3.464489
37956,Onga,48.1207157,20.9129384,3.6789730000000005
38156,Nagylengyel,46.778581,16.7633768,2.70757
38157,Ketsoprony,46.7191754,20.883979,3.154728
38158,Geresdlak,46.1083102,18.527004,2.887054
38159,Orgovany,46.7522776,19.473504,3.512551
38160,Balatongyorok,46.7616172,17.3504857,3.046495
38161,Dubicsany,48.2844206,20.4910842,2.454845
38356,Bakonyszentlaszlo,47.3907437,17.804337399999994,3.231215
38357,Karancslapujto,48.1526888,19.736084100000006,3.414137
38358,Farad,47.606276,17.201935100000004,3.2846559999999996
38359,Danszentmiklos,47.20773060000001,19.5561129,3.476542
38360,Felsonana,46.4672701,18.528759,2.761176
38361,Hollohaza,48.54166,21.412621899999998,2.91698
38362,Marko,47.1211315,17.814413300000005,3.082426
38556,Nyirmada,48.067926,22.1877049,3.6777889999999998
38557,Bocs,48.0385461,20.9716444,3.439964
38756,Gyorladamer,47.7535231,17.5634287,3.2103189999999997
38758,Somogyvar,46.5798816,17.6523745,3.271609
38956,Nyirlugos,47.6920499,22.0417654,3.431525
38960,Okany,46.89751029999999,21.3494563,3.406029
38961,Bakonycsernye,47.3194796,18.085004,3.4909410000000003
39156,Davod,45.99643070000001,18.9227327,3.2846559999999996
39157,Felsopeteny,47.88909,19.198011,2.79796
39158,Szigetujfalu,47.2332083,18.9235417,3.300378
39159,Szentgal,47.1125816,17.7351064,3.427486
39160,Gerjen,46.493611,18.9032424,3.0788189999999998
39161,Felsotarkany,47.9720171,20.4143577,3.5260809999999996
39162,Doboz,46.7344029,21.2413729,3.6198230000000002
39356,Regoly,46.5786721,18.3904744,3.042969
39357,Notincs,47.8821597,19.1404797,3.031409
39358,Sarud,47.5884589,20.5967429,3.0515380000000003
39556,Katymar,46.0345287,19.2098709,3.3138669999999997
39557,Kolcse,48.0511713,22.7158081,3.099335
39756,Vaja,47.9990668,22.1715133,3.5496160000000003
39958,Csanadpalota,46.2440484,20.723398,3.472464
39959,Helvecia,46.8373932,19.6212831,3.6526330000000002
39960,Boldva,48.217181,20.7884169,3.367542
40156,Liter,47.099915,18.0076,3.310481
40157,Ferencszallas,46.2168385,20.3528445,2.788875
40356,Nagyvazsony,46.9835252,17.698486399999997,3.2511509999999997
40556,Csemo,47.1183779,19.697672,3.6317480000000004
40756,Recsk,47.9356893,20.1103528,3.424228
40757,Bak,46.7306266,16.845582399999998,3.2214139999999998
40758,Gyorszemere,47.5528273,17.562254,3.5063699999999995
40759,Tatarszentgyorgy,47.0823354,19.3694988,3.295347
40760,Bakonybank,47.4668946,17.9040445,2.627366
40956,Szakszend,47.5502393,18.1694103,3.1702619999999997
41156,Pusztaszentlaszlo,46.6342567,16.8410158,2.777427
41157,Kal,47.7338768,20.2592411,3.544192
41356,Galgamacsa,47.693753,19.3848053,3.2915910000000004
41357,Kaposmero,46.3612591,17.7055288,3.3793059999999997
41556,Rakamaz,48.12218,21.4775144,3.6575339999999996
41557,Doge,48.2587979,22.068454,3.322839
41756,Madaras,46.0571305,19.2598668,3.4659769999999996
41757,Szirak,47.8285516,19.5300976,3.048053
41956,Cserkeszolo,46.8675023,20.195096,3.320146
41957,Himeshaza,46.0859355,18.5698349,3.032619
41958,Szabadkigyos,46.6012074,21.0760273,3.4307199999999995
42156,Jobbagyi,47.8303521,19.6767845,3.3439989999999997
42356,Teskand,46.854622799999994,16.779390399999997,3.051924
42357,Lovo,47.5034563,16.7827241,3.159266
42358,Levelek,47.9654436,21.9868073,3.4640419999999996
42359,Felcsut,47.4545349,18.5862386,3.2626880000000003
42556,Gutorfolde,46.6412956,16.7364699,3.009026
42756,Alsopahok,46.7613162,17.1738982,3.111598
42757,Csikeria,46.1261963,19.471556500000002,2.948902
42758,Pocspetri,47.8812739,21.993548,3.2337569999999998
42956,Pap,48.21553170000001,22.142502800000003,3.254306
42957,Mehkerek,46.77484929999999,21.4491781,3.3081370000000003
42958,Bohonye,46.40712720000001,17.386339800000002,3.371622
43156,Boconad,47.6420641,20.1873111,3.096215
43157,Szendro,48.403003399999996,20.7324798,3.60874
43158,Rudabanya,48.373781,20.6224508,3.39585
43356,Dor,47.597939700000005,17.298739899999998,2.840733
43556,Nagykapornak,46.8181906,16.992729399999998,2.957128
43756,Bozsok,47.3223133,16.488697400000003,2.515874
43757,Dunaalmas,47.73343660000001,18.3351245,3.212986
43758,Nadasdladany,47.137771,18.2398735,3.2427900000000003
43956,Nagyrabe,47.2045882,21.3192277,3.295347
43957,Soly,47.1298676,18.0321042,2.677607
44156,Noszvaj,47.9369531,20.4753593,3.268812
44356,Agyagosszergeny,47.609256,16.9409446,2.9454689999999997
44357,Bukkszentkereszt,48.0681306,20.630073100000004,3.083503
44556,Szihalom,47.7748385,20.4815867,3.287354
44557,Szatmarcseke,48.0851966,22.6297402,3.130977
44558,Bihartorda,47.214106,21.352960500000002,2.9527919999999996
44559,Szatymaz,46.3416797,20.0415788,3.669689
44756,Verpelet,47.8490107,20.2279112,3.581153
44956,Szantod,46.8693827,17.9045327,2.6009729999999998
45156,Naszaly,47.6979874,18.263462,3.366796
45157,Palotas,47.7954248,19.5955271,3.197005
45356,Tofej,46.66759570000001,16.800045800000003,2.8331470000000003
45357,Annavolgy,47.6960516,18.6659862,2.970812
45358,Kovagoszolos,46.0839686,18.1237809,3.1010590000000002
45556,Apaj,47.11377879999999,19.0871992,3.080987
45756,Nyarlorinc,46.8605244,19.8740931,3.3583160000000003
45956,Jaszladany,47.3649496,20.1653647,3.7568639999999998
45957,Paka,46.5933335,16.6494169,3.028571
45958,Palotabozsok,46.1288343,18.6409628,2.960471
45959,Tunyogmatolcs,47.97065170000001,22.4582423,3.38507
45960,Vacegres,47.6751335,19.3656575,2.945961
45961,Igal,46.5345467,17.9386708,3.1166080000000003
45962,Ruzsa,46.2891982,19.7497405,3.4017449999999996
46156,Ivan,47.44127,16.9107962,3.103462
46157,Kocser,47.00197410000001,19.9223932,3.262451
46158,Barand,47.292012,21.2259672,3.403121
46159,Ricse,48.3232066,21.9724499,3.22037
46556,Rabapatona,47.6318338,17.4809501,3.3848910000000005
46557,Benye,47.3553415,19.5398939,3.086716
46558,Pilisszentlaszlo,47.72314620000001,18.9892166,3.075182
46756,Varosfold,46.816342,19.760173,3.334856
46757,Balatonszentgyorgy,46.692195700000006,17.299987100000006,3.1942369999999998
46758,Vardomb,46.2477218,18.6873621,3.0663259999999997
46956,Lovas,46.9933669,17.958808899999994,2.641474
46957,Szaszvar,46.2744086,18.378308800000006,3.3681010000000002
46958,Zakanyszek,46.27690689999999,19.8859953,3.4382260000000002
47156,Novaj,47.8558382,20.4785002,3.143015
47357,Kurd,46.4489547,18.316134,3.081347
47556,Batya,46.4874153,18.954523,3.305996
47756,Kenezlo,48.1980342,21.5325344,3.089552
47956,Keszeg,47.8364445,19.237811999999998,2.792392
48156,Tiszadob,48.0094768,21.1668435,3.4659769999999996
48356,Zagyvarekas,47.2677137,20.12777,3.545554
48556,Deg,46.8727995,18.4477565,3.311118
48756,Bakonykuti,47.2455037,18.198023499999998,2.127105
48956,Kaloz,46.9552227,18.4823562,3.3805730000000005
48957,Fehervarcsurgo,47.2905701,18.2658414,3.294687
48958,Opusztaszer,46.4971782,20.0641986,3.361539
49156,Pand,47.3507322,19.6327453,3.31576
49157,Tarjanpuszta,47.505322,17.7861413,2.585461
49158,Veszkeny,47.5998622,17.0857366,2.960471
49159,Nagyszekely,46.6473903,18.5279944,2.6404810000000003
49160,Tiszasuly,47.391532700000006,20.3925824,3.136721
49356,Batmonostor,46.1047946,18.9279168,3.177248
49357,Zsana,46.37977070000001,19.6596195,2.876218
49358,Bakonybel,47.2551092,17.728019600000003,3.0766400000000003
49359,Hosszupalyi,47.39177,21.7335185,3.7674529999999997
49757,Vacduka,47.7445953,19.2145913,3.135768
49956,Verteskethely,47.4853613,18.0814667,2.759668
49957,Kolesd,46.5084069,18.5871321,3.169674
49958,Gyorsag,47.5802453,17.752152300000006,3.169674
49959,Tiszabezded,48.3622273,22.1525798,3.265996
50156,Tatahaza,46.1753439,19.3012323,3.0916669999999997
50157,Ocseny,46.3118597,18.7589115,3.3782160000000006
50158,Kisoroszi,47.8077185,19.007279800000006,2.980458
50356,Kunszallas,46.7605889,19.7524013,3.214844
50357,Domos,47.7636231,18.9110928,3.063333
50556,Beregdaroc,48.1970929,22.5309278,2.866287
50557,Maroslele,46.2674624,20.3426345,3.311118
50558,Bokod,47.493412799999994,18.242078600000003,3.321391
50559,Bogacs,47.904117600000006,20.5314509,3.3062110000000002
50560,Tinnye,47.6208911,18.7778879,3.206826
50561,Bolcske,46.7402601,18.9695194,3.451018
50758,Tereske,47.9488126,19.1933853,2.857935
50958,Orfu,46.1380554,18.1551995,2.97359
50959,Fajsz,46.4161452,18.9219733,3.2195840000000002
51158,Szany,47.4617917,17.304832100000002,3.306425
51159,Kotegyan,46.7347025,21.47905,3.131939
51160,Csaszar,47.5014578,18.1393362,3.2430380000000003
51359,Dorgicse,46.9156578,17.7236469,2.396199
51360,Felpec,47.5252219,17.596871399999994,2.927883
51558,Nagyborzsony,47.9360037,18.8243865,2.892651
51758,Mikepercs,47.4409524,21.6314977,3.6467959999999997
51759,Jeno,47.105789,18.2499452,3.123525
51760,Tallya,48.2353737,21.229904,3.279895
51761,Pazmand,47.2836305,18.6566197,3.307282
51762,Gyongyossolymos,47.8169351,19.9332261,3.4730489999999996
51763,Tortel,47.122487,19.9386111,3.629002
51764,Andocs,46.6488345,17.924340899999994,3.039017
51765,Szalka,46.2746959,18.6359643,2.786752
51958,Tes,47.257864,18.030485600000002,2.9014580000000003
51959,Tiszakanyar,48.2479618,21.96194280000001,3.203305
51960,Tarpa,48.1031244,22.5290514,3.3115419999999998
51961,Pacsa,46.72254,17.009777399999994,3.2450189999999997
51962,Bogyiszlo,46.3832444,18.8166969,3.341039
51963,Alap,46.8044751,18.6854298,3.2844309999999997
51964,Becsehely,46.4476173,16.7916533,3.3151300000000004
52158,Band,47.1220366,17.7795783,2.828015
52159,Csabdi,47.522845200000006,18.6058133,3.067443
52160,Forro,48.3224482,21.08665,3.385964
52358,Gara,46.034232,19.038691500000002,3.3904050000000003
52558,Kajarpec,47.4951901,17.627257800000006,3.094122
52758,Dejtar,48.0379059,19.1711489,3.144885
52759,Ikervar,47.2082081,16.8953858,3.2547900000000003
52760,Holloko,47.99747410000001,19.591570800000003,2.5705430000000002
52958,Nagyszentjanos,47.70919,17.8711581,3.252853
53158,Ormenyes,47.1909035,20.5676271,3.0207759999999997
53358,Karancskeszi,48.1635124,19.6989431,3.264109
53558,Csevharaszt,47.2995594,19.4326126,3.2880260000000003
53559,Pereszteg,47.5932256,16.7351763,3.1476759999999997
53560,Makad,47.08843579999999,18.9263252,3.085291
53561,Dunafalva,46.0838489,18.7725538,2.912753
53758,Kava,47.3556823,19.5879305,2.788168
53958,Jankmajtis,47.9400472,22.6491719,3.220631
54158,Nagyesztergar,47.276735,17.9050628,3.082426
54159,Pecol,47.205703299999996,16.829804100000004,2.898725
54358,Kajdacs,46.5640794,18.618573100000006,3.082785
54558,Mosdos,46.3535065,17.9868705,3.00561
54758,Epol,47.6467776,18.638088800000002,2.772322
54759,Uzsa,46.8953678,17.3381835,2.509202
54760,Totszerdahely,46.3985503,16.7974625,3.05576
54761,Csokvaomany,48.1657718,20.3738354,2.925828
55158,Jaszivany,47.5222439,20.2464747,2.607455
55159,Szabadszentkiraly,46.006339600000004,18.042124800000003,2.89487
55160,Csolyospalos,46.4186126,19.8387567,3.2195840000000002
55358,Nyirpazony,47.9808396,21.7990918,3.5425769999999996
55359,Nagyrecse,46.4887323,17.0516176,3.0553779999999997
55360,Nogradsap,47.839325099999996,19.3554001,2.9041740000000003
55361,Sarosd,47.04161060000001,18.649821600000006,3.521792
55362,Kungos,47.066010299999995,18.1734324,2.70415
55558,Lepseny,46.9943177,18.2443158,3.481299
55559,Jaszalsoszentgyorgy,47.37184570000001,20.0911454,3.535547
55758,Sarszentlorinc,46.6260581,18.6066341,2.969416
55958,Bernecebarati,48.038167,18.9139865,2.9283959999999998
55959,Bujak,47.8848223,19.5450988,3.320354
56158,Nagykaracsony,46.8666921,18.7749966,3.133858
56159,Rimoc,48.0374052,19.5304259,3.244772
56160,Boldog,47.6012001,19.6954291,3.4734870000000004
56161,Szomor,47.59191989999999,18.6641826,3.0553779999999997
56162,Fulopszallas,46.8200875,19.2395832,3.357554
56163,Mezonyarad,47.85711420000001,20.6783222,3.185259
56358,Arlo,48.176668,20.2541957,3.566555
56359,Csokmo,47.0333646,21.2948743,3.244524
56558,Tar,47.9508763,19.7443174,3.265761
56958,Vasarosdombo,46.305546,18.132263000000002,3.037426
57158,Gadoros,46.6706884,20.599598,3.55084
57358,Penc,47.8024259,19.2513708,3.1942369999999998
57359,Babarc,46.003599,18.5508466,2.8627279999999997
57558,Tardos,47.6633891,18.4449341,3.198657
57758,Tolcsva,48.2827761,21.4490584,3.225568
57759,Varoslod,47.14606989999999,17.654097600000004,3.144263
57958,Kemecse,48.0678349,21.7986929,3.675412
58158,Sarkadkeresztur,46.8083398,21.3813249,3.174641
58159,Bana,47.6505062,17.9196468,3.201124
58358,Szentlorinckata,47.5220313,19.7558396,3.2743889999999998
58558,Oreglak,46.6055398,17.6286333,3.203305
58559,Szeleveny,46.8034945,20.1973333,3.021189
58758,Neszmely,47.7357694,18.3654526,3.1241779999999997
58759,Marianosztra,47.864787299999996,18.872066600000004,2.960471
58958,Pecsely,46.9551435,17.7864493,2.70927
59358,Jaszkiser,47.4594684,20.2167801,3.7130699999999996
59359,Harkakotony,46.4631696,19.611278,2.9703470000000003
59360,Vasad,47.322178,19.400671,3.278525
59361,Porcsalma,47.8824619,22.5682954,3.404492
59362,Csokako,47.3563896,18.2757791,3.117603
59363,Rad,48.4620099,21.8583845,3.286007
59558,Hernadnemeti,48.0711901,20.9770518,3.533645
59559,Vaszoly,46.9392057,17.7591997,2.342423
59560,Becsvolgye,46.7592756,16.6812859,2.885361
59561,Domony,47.6535146,19.4384419,3.3398489999999996
59562,Hajduszovat,47.39040720000001,21.4750896,3.482588
59758,Kek,48.1149173,21.8778149,3.2869050000000004
59959,Tiszadada,48.030817,21.2366013,3.3481099999999997
60158,Totszentmarton,46.42201770000001,16.803043300000002,2.9196009999999997
60159,Kisgyor,48.0103225,20.6887124,3.216957
60358,Nagybanhegyes,46.4591053,20.9017461,3.052694
60558,Agfalva,47.6905324,16.5137872,3.338058
60559,Osli,47.6401697,17.0749299,2.932474
60560,Murakeresztur,46.3613481,16.8755522,3.244772
60561,Nagymagocs,46.58345170000001,20.4811682,3.4895370000000003
60562,Bugac,46.6888994,19.6821439,3.448552
60758,Hercegkut,48.3360251,21.5288015,2.795185
60759,Parad,47.9234507,20.0304804,3.2931410000000003
60760,Vertesacsa,47.3744031,18.579658,3.241796
60761,Kislang,46.9602484,18.3851659,3.3703279999999998
60762,Gamas,46.62023789999999,17.7625713,2.858537
60958,Pusztaszer,46.5496529,19.9849026,3.1702619999999997
60959,Karacsond,47.7238977,20.0267964,3.4835870000000004
60960,Abaliget,46.140978000000004,18.116744,2.7678979999999997
61158,Balatonfokajar,47.0202933,18.2122159,3.124504
61159,Kissikator,48.1936633,20.1316376,2.494155
61358,Zsadany,46.92174,21.4861925,3.214579
61558,Balatonudvari,46.9054215,17.804820199999995,2.49693
61559,Nyirabrany,47.5494817,22.0207822,3.563125
61758,Kiszombor,46.1889728,20.4270576,3.576572
61958,Balatonendred,46.8362401,17.976594199999994,3.1267810000000003
61959,Bodrogolaszi,48.28765070000001,21.5176284,2.9454689999999997
61960,Segesd,46.353170500000004,17.3472113,3.391112
61961,Tiszaderzs,47.5130513,20.642349,3.019532
61962,Szentpeterur,46.7583841,17.038396399999996,3.019947
61963,Nagybereny,46.7982528,18.163997100000003,3.129368
62158,Furta,47.127639200000004,21.4552143,3.0553779999999997
62159,Alattyan,47.4256813,20.0475867,3.322426
62358,Nagyrede,47.76548820000001,19.8503473,3.490099
62558,Kehidakustany,46.842999400000004,17.0943015,3.042969
62758,Ersekhalma,46.3482313,19.1226887,2.804821
62958,Cigand,48.2615593,21.8888754,3.4284589999999997
63158,Koronco,47.5973773,17.529815600000006,3.3077099999999997
63159,Hehalom,47.779509999999995,19.5857856,2.978637
63358,Palfa,46.7158855,18.6157181,3.1917299999999997
63359,Szar,47.47742589999999,18.5184841,3.215109
63360,Artand,47.1237274,21.759888600000004,2.700704
63558,Lovaszi,46.5550763,16.5547314,3.080987
63559,Kald,47.1640622,17.044881600000004,3.0128369999999998
63758,Kocsord,47.9390852,22.386991100000003,3.4423230000000005
63958,Tyukod,47.851694,22.5532149,3.262925
63959,Bate,46.358990399999996,17.962778699999994,2.920123
63960,Nagykoru,47.2732125,20.451879,3.217747
64158,Szil,47.5013162,17.2319589,3.085291
64159,Medina,46.4738585,18.6433566,2.905796
64358,Pornoapati,47.1560615,16.465888699999994,2.618048
64558,Baracska,47.2844533,18.7569741,3.4418519999999995
64559,Csot,47.360614700000006,17.603401100000006,2.985875
64560,Dunaszekcso,46.0848787,18.7596125,3.286007
64561,Tepe,47.3194564,21.572157,3.0488299999999997
64758,Nagybajom,46.3923964,17.511183300000006,3.535421
64759,Mihalyfa,46.9800828,17.1906724,2.5865869999999997
64760,Koszarhegy,47.092036,18.3421918,3.209515
64958,Tiszakeszi,47.7882813,20.99462,3.3956760000000004
65158,Bony,47.65191779999999,17.869197800000002,3.333044
65159,Kajaszo,47.3264844,18.7217551,3.023252
65160,Perocseny,47.9952528,18.8611472,2.4828740000000002
65162,Tibolddaroc,47.9207679,20.6375539,3.15137
65163,Szarvasgede,47.8208159,19.6434085,2.599883
65164,Pali,47.4748121,17.166190399999998,2.537819
65358,Bar,46.051814,18.7172495,2.727541
65359,Buzsak,46.6487053,17.577465300000004,3.156549
65360,Feketeerdo,47.935610600000004,17.2793082,2.750508
65361,Adacs,47.691546,19.9751962,3.4297519999999997
65558,Somogyszob,46.2929761,17.296827399999998,3.192846
65559,Szerep,47.2274297,21.1410165,3.177825
65560,Vertesboglar,47.4291239,18.5241296,2.934499
65561,Olaszliszka,48.2436306,21.4361913,3.22037
65758,Sarkeresztes,47.2525814,18.3525837,3.171434
65958,Vajszlo,45.8601705,17.984813,3.228913
66158,Tenyo,47.5406578,17.6456212,3.187521
66159,Urhida,47.13267329999999,18.3345777,3.374015
66160,Hajmasker,47.1444695,18.014267800000006,3.4862889999999997
66161,Bikal,46.331567,18.284810800000002,2.870989
66162,Szigetbecse,47.1305562,18.9491726,3.1316189999999997
66358,Dunasziget,47.9415304,17.354369100000003,3.157457
66359,Kimle,47.8268335,17.3709629,3.3414339999999996
66558,Olaszfalu,47.2436541,17.9078919,3.028571
66758,Rozsaszentmarton,47.78285579999999,19.7419306,3.2898120000000004
66759,Bakonszeg,47.18953120000001,21.4454608,3.064458
66959,Telkibanya,48.48560300000001,21.3544735,2.744293
66960,Nagynyarad,45.9448762,18.581665,2.856729
67158,Zsaka,47.1343067,21.4359876,3.188647
67159,Matraverebely,47.9731122,19.7787443,3.31576
67160,Nyirbeltek,47.699839,22.1297911,3.4379089999999994
67358,Telekgerendas,46.66223370000001,20.9547929,3.190051
67359,Matyus,48.2831601,22.282327600000002,2.439333
67558,Dudar,47.31058,17.943927600000006,3.185825
67559,Bucsa,47.2042482,20.9967301,3.312812
67560,Gyongyoshalasz,47.73948920000001,19.9147492,3.403292
67561,Bukkszek,47.988871,20.1751845,2.8331470000000003
67758,Hantos,46.999423799999995,18.6997764,2.959041
67958,Vamosszabadi,47.7529429,17.648687600000006,3.21272
67959,Szekkutas,46.5043851,20.5341742,3.3684730000000003
67960,Mindszentgodisa,46.22949860000001,18.0730903,2.9395189999999998
67961,Jaszjakohalma,47.5219388,19.989113600000003,3.484157
67962,Kazsmark,48.2754799,20.9740323,2.9818189999999998
68158,Balloszog,46.8605519,19.5695767,3.533772
68358,Vajta,46.71799220000001,18.664926,3.0224279999999997
68359,Matraszolos,47.9449844,19.701211800000006,3.20085
68558,Csepa,46.8062494,20.1304652,3.1861080000000004
68559,Delegyhaza,47.247818,19.066912,3.5532760000000003
68758,Borota,46.2656791,19.2231688,3.111934
68759,Jak,47.141049,16.5807225,3.413467
68958,Mezoors,47.568708799999996,17.8794975,3.003461
69158,Dregelypalank,48.0520987,19.0440957,3.17406
69358,Taktaharkany,48.088049,21.1324053,3.56134
69359,Ladanybene,47.0350187,19.4557131,3.228913
69360,Senyo,48.0027718,21.8785276,3.147985
69361,Csengele,46.5395807,19.867134600000004,3.293804
69362,Izmeny,46.313413399999995,18.4145662,2.710117
69363,Nagybajcs,47.7644567,17.686893100000006,2.970812
69364,Somogyjad,46.4914921,17.715881399999994,3.1947919999999996
69365,Szentpeterfa,47.0920255,16.480394099999998,2.979093
69366,Murony,46.7618154,21.038963,3.089198
69367,Tiszajeno,47.0311761,20.1415833,3.215373
69369,Geszt,46.8819064,21.5807071,2.877371
69370,Borsosbereny,47.9763628,19.1174909,3.000434
69371,Nagykamaras,46.4706907,21.1193128,3.1354509999999998
69372,Tac,47.0806916,18.411286899999997,3.217221
69373,Juta,46.4060761,17.7342201,3.092018
69374,Aporka,47.232627,19.0120921,3.072618
69375,Mesztegnyo,46.50449520000001,17.4239393,3.133539
69376,Tiszakurt,46.8868615,20.127701100000003,3.131298
69377,Nekezseny,48.1676234,20.4287414,2.866287
69378,Ciko,46.253679999999996,18.5591237,2.914343
69379,Visonta,47.779705,20.0269417,3.051924
69380,Patca,46.284632200000004,17.7237804,1.799341
69381,Mihalygerge,48.1951964,19.6341042,2.7474119999999997
69382,Ugod,47.3180364,17.601397199999994,3.152288
69383,Felsoors,47.0151318,17.952615100000006,3.212454
69384,Dad,47.5182282,18.2254274,3.0051810000000003
69385,Asvanyraro,47.8299324,17.4996843,3.269046
69386,Cseteny,47.3171578,17.9962766,3.2741580000000003
69387,Taplanszentkereszt,47.198556,16.696725,3.4178040000000003
69388,Tornyospalca,48.2670948,22.1789783,3.3949769999999995
69389,Kisbagyon,47.8234425,19.5849793,2.643453
69390,Anarcs,48.1782578,22.1032718,3.2814879999999995
69391,Etes,48.1098902,19.717374300000003,3.1501419999999998
69392,Borsodszentgyorgy,48.18809520000001,20.2033107,3.054996
69393,Kaskantyu,46.671461799999996,19.3869842,2.966611
69394,Monostorapati,46.9248966,17.555335,3.031409
69395,Magyardombegyhaz,46.37978920000001,21.0722225,2.303196
69396,Kisszallas,46.28065529999999,19.4912631,3.379487
69397,Halmaj,48.2462494,21.0016795,3.267875
69398,Nadasd,46.96506820000001,16.612900099999994,3.114611
69399,Csanadapaca,46.53281120000001,20.883318600000006,3.4178040000000003
69400,Pusztamerges,46.3284358,19.6857424,3.088845
69558,Latrany,46.7484949,17.744575899999994,3.1329
69559,Magyarnandor,47.967568299999996,19.3487659,3.054996
69560,Kisdorog,46.3887615,18.4969413,2.866287
69561,Nyalka,47.54380689999999,17.8081139,2.6637009999999997
69562,Bodvaszilas,48.5368458,20.7315708,3.002166
69563,Erdotelek,47.6867102,20.3144529,3.501607
69564,Osi,47.1435993,18.188288399999998,3.304706
69565,Taktaszada,48.1108216,21.1760084,3.273695
69566,Redics,46.614942299999996,16.4846742,2.973128
69567,Szarliget,47.5184474,18.4935586,3.3780339999999995
69568,Surd,46.3198232,16.968883399999996,2.8014040000000002
69569,Majoshaza,47.2644792,18.9958458,3.20167
69570,Megyaszo,48.1873814,21.0541885,3.434888
69571,Kisnana,47.8530515,20.146141,2.9969490000000003
69572,Kenyeri,47.3860703,17.092601000000002,2.91169
69573,Zagyvaszanto,47.7755885,19.6705195,3.283979
69574,Ordas,46.6361256,18.949323100000004,2.618048
69575,Miszla,46.6314672,18.4834395,2.4345689999999998
69576,Tetetlen,47.3136847,21.3040955,3.144263
69577,Pacin,48.3311165,21.8330516,3.1401939999999997
69578,Hodasz,47.9168268,22.2046402,3.5181190000000004
69579,Hosszupereszteg,47.0955027,17.0231836,2.787461
69580,Csesztreg,46.716788799999996,16.5151365,2.897627
69581,Nagyberki,46.3574714,18.007412600000006,3.1634599999999997
69582,Bosarkany,47.6904548,17.2493747,3.3244879999999997
69583,Haromfa,46.1046252,17.3295434,2.8785220000000002
69585,Rakocziujfalu,47.06004229999999,20.2624113,3.3014639999999997
69586,Tolnanemedi,46.7141878,18.4739246,3.028164
69587,Kalmanhaza,47.8734276,21.5772185,3.293363
69588,Totvazsony,47.00830120000001,17.7874287,3.0913150000000003
69589,Szolosgyorok,46.7080197,17.675599300000005,3.090963
69758,Monok,48.2121842,21.1497677,3.192567
69759,Santos,46.344074400000004,17.8829943,2.710117
69760,Tiszanagyfalu,48.0935241,21.4705176,3.256958
69761,Puspokszilagy,47.7402533,19.3154773,2.877371
69762,Banhorvati,48.2258105,20.5024796,3.125481
69763,Gerendas,46.59747539999999,20.8576904,3.117603
69764,Rede,47.4312328,17.9165125,3.12969
69765,Komloska,48.3408217,21.462898100000004,2.374748
69766,Izsofalva,48.3097463,20.653100100000003,3.2402990000000003
69767,Karcsa,48.31141470000001,21.7929937,3.239049
69768,Krasznokvajda,48.469907299999996,20.9702508,2.627366
69769,Retkozberencs,48.2043859,22.011198,3.061829
69770,Balatonszolos,46.9673651,17.8292145,2.79796
69771,Magyarhertelend,46.1892361,18.1515426,2.7972669999999997
69772,Kardoskut,46.4966066,20.7015134,2.946943
69773,Boba,47.18459470000001,17.1870848,2.906873
69774,Kutaso,47.94685870000001,19.5425117,2.0
69775,Balatonkeresztur,46.6976457,17.3704438,3.161368
69776,Kadarkut,46.2324884,17.6140623,3.412124
69777,Komlod,47.5470914,18.2606324,3.0759119999999998
69779,Barsonyos,47.5089888,17.921481600000003,2.868056
69780,Alacska,48.2155393,20.6516274,2.873902
69781,Prugy,48.0806544,21.2451536,3.3706980000000004
69782,Karancsalja,48.1336594,19.7518849,3.187521
69783,Bezenye,47.9621234,17.2162083,3.143951
69784,Kacs,47.956505299999996,20.6151528,2.706718
69785,Acsa,47.79253370000001,19.386298,3.159266
69786,Magyarcsanad,46.169666,20.6099339,3.163758
69787,Egerszolat,47.8903931,20.2678265,3.0261240000000003
69788,Sioagard,46.39078789999999,18.6535953,3.095518
69789,Patak,48.0192328,19.1448732,2.945961
69790,Szucsi,47.8041906,19.763216600000003,3.193959
69791,Romonya,46.0885145,18.3396465,2.686636
69792,Mesterszallas,46.9538509,20.430865899999997,2.8394779999999997
69793,Gonc,48.4724881,21.2726277,3.290257
69794,Lovaszpatona,47.4391575,17.6334802,3.032216
69795,Zalakomar,46.5463542,17.1756684,3.477121
69796,Csabacsud,46.8249806,20.6504324,3.255272
69797,Tiszaszentmarton,48.3759219,22.2334021,3.049993
69798,Kaposszekcso,46.3296936,18.1299521,3.1869560000000003
69799,Aggtelek,48.4675104,20.5054283,2.728354
69800,Tarnamera,47.6522963,20.154955,3.204933
69801,Ipolyvece,48.0619605,19.102546399999998,2.9003669999999997
69802,Szakoly,47.7616355,21.901328,3.436957
69803,Nyarsapat,47.10117460000001,19.801682,3.2962260000000003
69804,Vamosmikola,47.97746770000001,18.7841116,3.199481
69805,Zalaszentivan,46.8917607,16.897247399999998,3.015779
69806,Vegegyhaza,46.3872782,20.8713265,3.115611
69807,Fertoendred,47.60494179999999,16.907214,2.770115
69808,Sajoszoged,47.9447446,20.9923296,3.355068
69809,Tiszakerecseny,48.2587093,22.3000932,2.941511
69810,Lengyel,46.3750193,18.3686395,2.7299740000000003
69811,Ratka,48.2499761,19.76932328653682,2.975891
69812,Tiszabercel,48.1565239,21.6493885,3.2771510000000004
69813,Perkupa,48.4707905,20.6905495,2.913284
69814,Mecser,47.7964534,17.476957000000002,2.770115
69815,Korosszakal,47.0194297,21.5972256,2.910625
69816,Zok,46.011664,18.097448899999996,2.4424799999999998
69817,Sarmellek,46.7080843,17.1682755,3.265525
69818,Atkar,47.7196216,19.8901629,3.22917
69819,Szuhakallo,48.284074200000006,20.6515171,2.975891
69820,Fabianhaza,47.84839760000001,22.3545387,3.20871
69821,Vizsoly,48.385049,21.2169419,2.895422
69822,Szurdokpuspoki,47.8524785,19.695582,3.284882
69823,Hidasnemeti,48.5002675,21.2287776,3.0261240000000003
69824,Csenye,47.2371826,16.870230399999997,2.859739
69826,Esztar,47.2851157,21.7755201,3.1354509999999998
69827,Borsfa,46.50122020000001,16.7834908,2.851258
69828,Lokut,47.2065946,17.8625213,2.696356
69829,Ludanyhalaszi,48.1346794,19.5242934,3.20085
69830,Penzesgyor,47.23044,17.787116100000006,2.528917
69831,Egyhazasgerge,48.1788385,19.646918399999997,2.8561240000000003
69832,Gegeny,48.1471956,21.9490593,3.2828489999999997
69833,Encsencs,47.744204,22.1144108,3.2922559999999996
69834,Tiszabo,47.3090228,20.4852891,3.26998
69835,Bagod,46.8768639,16.7437582,3.123525
69837,Egerlovo,47.719469000000004,20.6223013,2.727541
69838,Tiszaigar,47.5353761,20.7999697,2.9100900000000003
69839,Vackisujfalu,47.7044226,19.348998499999997,2.658011
69840,Sata,48.1850594,20.3932034,3.015779
69841,Bekessamson,46.4159576,20.622012,3.3651129999999996
69842,Puspokhatvan,47.77594000000001,19.3660724,3.17667
69843,Ujbarok,47.4785356,18.557873999999998,2.643453
69844,Nyirlovo,48.2007969,22.1825759,2.8286599999999997
69845,Kaszaper,46.4578045,20.8232128,3.2929199999999996
69846,Csobaj,48.0481381,21.340159600000003,2.846337
69847,Matraballa,47.9831146,20.0198909,2.853698
69848,Bogyoszlo,47.55918120000001,17.1862998,2.7767009999999996
69849,Mariapocs,47.8793156,22.0258708,3.310056
69850,Kaposfo,46.3618336,17.669838600000006,3.219846
69851,Tiszaszalka,48.1863428,22.314873100000003,2.9084849999999998
69852,Tiszaeszlar,48.0355119,21.4577541,3.4092569999999998
69853,Gyekenyes,46.2371661,17.009020800000002,2.976808
69854,Balatonederics,46.8091396,17.381310600000006,3.00561
69855,Vezseny,47.03364910000001,20.219912899999997,2.840106
69856,Zsebehaza,47.5113728,17.1913798,2.1038040000000002
69857,Nyircsaholy,47.9025711,22.3351647,3.309417
69958,Mosonszolnok,47.8527584,17.1741402,3.2242740000000003
69959,Mihalyhaza,47.3096771,17.3381405,2.870404
69960,Nagypeterd,46.047799499999996,17.897168,2.812245
69961,Nagykutas,46.9263674,16.8017518,2.642465
69962,Kallo,47.7489664,19.4919898,3.149835
69963,Volcsej,47.4979685,16.762954399999998,2.587711
69964,Nagykonyi,46.5903723,18.2032011,3.037426
69965,Almaskamaras,46.46083839999999,21.0928908,2.9216860000000002
69966,Zengovarkony,46.1706183,18.4318126,2.617
69967,Csovar,47.8137655,19.323848100000006,2.816904
69968,Kubekhaza,46.1495422,20.2763754,3.172603
69969,Magyarhomorog,47.021454,21.542895,2.93852
69970,Berzence,46.2059813,17.148481,3.3982870000000003
69971,Erdobenye,48.2665311,21.3556318,3.007748
69972,Kerecsend,47.7940489,20.3461026,3.362483
69973,Fule,47.0526686,18.245888,2.921166
69974,Godre,46.2863628,17.9726634,2.9196009999999997
69975,Kisleta,47.8340953,22.0034849,3.2652900000000002
69976,Szomolya,47.8923451,20.4938733,3.192846
69977,Felsoszentivan,46.1947597,19.1881586,3.285107
69978,Vilyvitany,48.49459270000001,21.562581299999998,2.361728
69979,Szakmar,46.5553977,19.075931,3.059942
69980,Bakonyszentkiraly,47.363927600000004,17.882600600000004,2.905256
69981,Bagamer,47.4454935,21.991913600000004,3.394101
69982,Nagyhegyes,47.5385142,21.3465888,3.439333
69983,Nemesszalok,47.2744171,17.3015774,2.963315
69984,Koveskal,46.8814046,17.6056741,2.5693740000000003
69985,Maklar,47.8043193,20.413119,3.3798489999999997
69986,Ecseg,47.8983295,19.6026278,3.085291
70158,Nemesker,47.483782899999994,16.8029043,2.32838
70159,Nagyut,47.72000900000001,20.1729336,2.819544
70160,Kurityan,48.313992,20.6209451,3.203577
70161,Lipot,47.8613435,17.4616155,2.829304
70162,Gyongyosfalu,47.315618,16.5868634,3.034628
70163,Ujszentivan,46.1869538,20.1807357,3.251881
70164,Homrogd,48.2780375,20.913988,2.980458
70165,Kisfalud,47.5294255,17.0883689,2.863323
70166,Ravazd,47.5166849,17.752667300000006,3.082785
70168,Szaszberek,47.3107297,20.093252,2.986324
70169,Erpatak,47.8086855,21.7583427,3.223496
70170,Baks,46.5495087,20.1071453,3.2929199999999996
70171,Domoszlo,47.82629489999999,20.1163279,3.2984160000000005
70172,Bodrogkisfalud,48.1728331,21.357453399999997,2.922206
70173,Rabaszentmihaly,47.5787949,17.433238199999998,2.680336
70174,Csesznek,47.3543147,17.8827939,2.711807
70175,Szulok,46.0505352,17.5507953,2.783904
70176,Osagard,47.8578715,19.195361399999996,2.465383
70177,Gederlak,46.608515600000004,18.9140472,2.992553
70178,Ambrozfalva,46.3495419,20.7300915,2.686636
70179,Mezozombor,48.1528217,21.2594856,3.376212
70180,Berkesz,48.0921492,21.978725,2.958086
70181,Zalaszentmihaly,46.7296101,16.949373,2.9881130000000002
70182,Balotaszallas,46.3510123,19.5361824,3.175222
70183,Ujszilvas,47.2697146,19.9142046,3.440752
70184,Gyure,48.1758965,22.2669136,3.079181
70185,Ete,47.5320249,18.0747955,2.7435099999999997
70186,Varbo,48.1622645,20.6195355,3.0362299999999998
70187,Tokodaltaro,47.7321967,18.6926702,3.4835870000000004
70188,Sajobabony,48.174985,20.7386368,3.444357
70189,Monostorpalyi,47.3975197,21.7734026,3.3296010000000003
70190,Apagy,47.9593892,21.9348469,3.342225
70191,Berkenye,47.8878852,19.072611,2.804139
70192,Toltestava,47.6269367,17.7342499,3.3457660000000002
70193,Gesztely,48.1027448,20.9648967,3.446848
70194,Bazakerettye,46.5242749,16.7285316,2.91698
70195,Istenmezeje,48.0829743,20.0518117,3.1832700000000003
70196,Olasz,46.015164500000004,18.411796,2.79934
70197,Varalja,46.2677639,18.4285404,2.929929
70198,Hunya,46.8119535,20.844298100000003,2.802089
70199,Dunaszentpal,47.776717100000006,17.5070598,2.8686439999999997
70200,Fityehaz,46.3749783,16.9058982,2.813581
70201,Batyk,46.98989260000001,17.035743,2.594393
70202,Egercsehi,48.053835,20.2555139,3.138934
70203,Fertohomok,47.619766399999996,16.7671593,2.804821
70204,Cserkut,46.0762599,18.135226,2.7535830000000003
70205,Tiszabura,47.4466393,20.4577789,3.466126
70206,Vamosgyork,47.68085,19.927906600000004,3.299071
70207,Hedervar,47.8317006,17.457972899999998,3.077368
70208,Bogad,46.0839252,18.32219,3.039017
70209,Cserhatsurany,47.9775035,19.426440399999997,2.923762
70210,Patroha,48.1722466,21.989932100000004,3.4531650000000003
70211,Pely,47.491656,20.3415506,3.1109259999999996
70212,Kutas,46.3320657,17.453030899999998,3.156549
70358,Bocskaikert,47.645522,21.660948,3.469233
70359,Sitke,47.242815,17.0242831,2.814248
70360,Csanyoszro,45.8812165,17.9074456,2.824776
70361,Vassurany,47.2863994,16.7055444,2.90309
70362,Nagyalasony,47.2302982,17.3565167,2.681241
70363,Nick,47.40201810000001,17.019668600000006,2.701568
70364,Fedemes,48.03161179999999,20.1857362,2.489959
70365,Enese,47.643899,17.421885600000003,3.2516380000000003
70366,Aparhant,46.3295939,18.4486863,3.002598
70367,Ordacsehi,46.7432686,17.6241198,2.891537
70368,Tardona,48.1699279,20.5298327,3.0047509999999997
70369,Hernadkak,48.0936674,20.9679537,3.21272
70370,Letkes,47.8853112,18.776906,3.056142
70371,Somogysard,46.4119896,17.5975733,3.092721
70372,Rabacsanak,47.5254922,17.289466600000004,2.662758
70373,Nadap,47.2579935,18.6174895,2.7323939999999998
70374,Het,48.2828158,20.3894798,2.692847
70375,Kincsesbanya,47.2644597,18.2739108,3.183555
70376,Nagyrozvagy,48.3432971,21.9197055,2.784617
70377,Harskut,47.1862786,17.814819699999994,2.814913
70378,Pocsaj,47.2821487,21.8048015,3.411451
70379,Isztimer,47.278287,18.1962327,2.990783
70380,Sajokeresztur,48.1696732,20.7761614,3.177536
70381,Varsany,48.0388158,19.4902093,3.213518
70382,Kunbaracs,46.9893175,19.400517800000006,2.79934
70383,Lucfalva,48.0303894,19.6925632,2.781037
70384,Gyulahaza,48.1379398,22.1117329,3.271609
70385,Domahaza,48.18232020000001,20.1034271,2.91169
70386,Tompaladony,47.38056470000001,16.8837579,2.4871380000000003
70387,Bodrogkeresztur,48.15876,21.3606584,3.044148
70388,Onod,48.0011319,20.9144159,3.414137
70389,Szekelyszabar,46.0457495,18.6031429,2.7678979999999997
70390,Mariahalom,47.627766799999996,18.709023000000002,2.8182259999999997
70391,Mezotarkany,47.7218712,20.4760816,3.1972810000000003
70392,Kaposujlak,46.3667854,17.7259097,2.859739
70393,Zalaveg,47.0060755,17.026739300000006,2.568202
70394,Zarank,47.6429101,20.103215300000002,2.612784
70558,Mucsony,48.2697977,20.680282,3.4906610000000002
70559,Epleny,47.208029700000004,17.9167432,2.718502
70560,Sur,47.370240700000004,18.0290297,3.084934
70561,Bercel,47.8698475,19.4035193,3.3244879999999997
70562,Mezogyan,46.869721500000004,21.5229758,3.017868
70758,Nagypali,46.9085576,16.8413718,2.671173
70759,Lonya,48.3181875,22.2704253,2.812913
70760,Zubogy,48.3802508,20.574897399999998,2.761176
70761,Agasegyhaza,46.840237,19.4468392,3.3049209999999998
70762,Dombegyhaz,46.3405657,21.1320152,3.288473
70958,Tap,47.516569,17.8302582,2.844477
70959,Osku,47.1601175,18.0730921,3.354493
70960,Borjad,45.9353208,18.4683599,2.588832
70961,Szentlaszlo,46.7064864,16.348981900000002,2.925828
70962,Zamoly,47.3183087,18.4139732,3.3455699999999995
70963,Kisbajcs,47.7452989,17.6812283,2.931966
70964,Feldebro,47.81304779999999,20.2329418,3.009026
70965,Mezokomarom,46.8290114,18.2898184,2.956649
70966,Erzsebet,46.1006605,18.4586279,2.478566
70967,Tabdi,46.685006,19.3084062,3.031812
70968,Konyar,47.32097020000001,21.6738284,3.303196
70969,Matraterenye,48.03097860000001,19.9483115,3.240549
70970,Borsodszirak,48.2610547,20.766952,3.0788189999999998
70971,Ispank,46.8632624,16.4419855,2.017033
70972,Sap,47.454260600000005,19.5214828,2.972203
70973,Sarrod,47.6343381,16.860858899999997,3.0700380000000003
71158,Aszalo,48.2256199,20.9547736,3.273927
71159,Ottomos,46.281858,19.6813952,2.843855
71161,Taszar,46.3736269,17.905154100000004,3.2951269999999995
71162,Nagyrev,46.945637899999994,20.1426865,2.8627279999999997
71163,Verseg,47.722441,19.5487063,3.126456
71164,Szilsarkany,47.537982799999995,17.2553253,2.813581
71165,Gyorvar,46.9865245,16.8397595,2.782473
71166,Balogunyom,47.1557335,16.6518727,3.0755470000000003
71167,Kety,47.96666670000001,18.5666667,2.841359
71168,Jasd,47.282947899999996,18.026161,2.862131
71169,Rabapaty,47.3028024,16.927878699999994,3.234264
71170,Vertestolna,47.6243321,18.4583302,2.7323939999999998
71171,Jasztelek,47.481372,20.0023081,3.211388
71172,Barna,48.1005865,19.9338448,3.0224279999999997
71173,Nagysap,47.68348020000001,18.6040868,3.1832700000000003
71174,Nak,46.4772118,18.0517396,2.741152
71175,Tazlar,46.5490532,19.5139074,3.23096
71176,Gyorkony,46.6345169,18.6945738,2.972203
71177,Mucsi,46.4272278,18.3950016,2.6570560000000003
71178,Erdotarcsa,47.7617556,19.5427513,2.691965
71179,Rem,46.2446558,19.144833399999996,3.11227
71180,Muhi,47.9795924,20.9288979,2.726727
71181,Fuzer,48.538101899999994,21.4559639,2.669317
71182,Mariakemend,46.0289891,18.4623136,2.769377
71183,Halimba,47.0332649,17.5356155,3.040207
71184,Bakonynana,47.2819705,17.9692327,3.019947
71185,Vadna,48.274822799999995,20.557053200000002,2.775974
71186,Sagvar,46.83734550000001,18.1020278,3.2557549999999997
71187,Bukkszenterzsebet,48.0507263,20.1554581,3.017033
71188,Andornaktalya,47.8436439,20.4125987,3.437751
71189,Zalaszentbalazs,46.5878936,16.9187118,2.9095560000000003
71190,Nagylak,46.1666807,20.7499924,2.668386
71191,Pusztakovacsi,46.530382700000004,17.5739763,2.925312
71192,Balatonoszod,46.8069464,17.800221899999997,2.705864
71193,Sajovelezd,48.2731652,20.4614174,2.91698
71358,Iszkaszentgyorgy,47.23819810000001,18.2950197,3.307924
71359,Zsira,47.456044399999996,16.6807707,2.893207
71360,Doba,47.1659729,17.3798491,2.70927
71361,Ujpetre,45.936667299999996,18.3635782,3.0141
71362,Kulsovat,47.29631550000001,17.225658,2.879669
71363,Nemetker,46.7174731,18.764396,3.227372
71364,Magyaregregy,46.25100910000001,18.3082723,2.8555189999999997
71365,Rabakecol,47.4322157,17.114086999999998,2.822822
71366,Papateszer,47.3832729,17.6971193,3.060698
71367,Koroshegy,46.8312694,17.9005457,3.202216
71368,Lad,46.1396459,17.64575,2.7339990000000003
71369,Tard,47.873020200000006,20.604135600000006,3.089905
71370,Gyomore,47.5007383,17.5647405,3.0982979999999998
71371,Manfa,46.161445,18.2409479,2.925828
71372,Egyhazasdengeleg,47.7976098,19.5589914,2.669317
71373,Nagylozs,47.5669714,16.7703934,3.017451
71374,Tarnalelesz,48.0567685,20.1805943,3.2208919999999996
71375,Acsteszer,47.4060144,18.0056878,2.823474
71376,Rabatamasi,47.5885576,17.169698699999998,3.0047509999999997
71377,Alsoszentivan,46.7957787,18.7321463,2.783904
71378,Zalaistvand,46.917918900000004,16.975852,2.5693740000000003
71379,Bator,47.991768,20.2656574,2.609594
71380,Bakonysarkany,47.4479595,18.1014985,2.97359
71381,Mezoszentgyorgy,46.994048,18.2738432,3.11694
71559,Szeremle,46.1454982,18.8795714,3.1501419999999998
71560,Nogradsipek,48.008629299999996,19.5009497,2.822168
71561,Szolad,46.7867708,17.840181100000006,2.737987
71562,Morichida,47.5134229,17.419763800000002,2.906873
71563,Mezolak,47.32908270000001,17.3713022,3.013259
71564,Ujker,47.463142,16.8145095,2.989895
71565,Rabacsecseny,47.5877669,17.4233368,2.7795970000000003
71566,Sarhida,46.757687,16.842532300000002,2.898725
71567,Kekcse,48.251734,22.009493,3.188084
71568,Nagycserkesz,47.9641355,21.5534409,3.2385479999999998
71569,Nyirtass,48.1157169,22.0230588,3.2878019999999997
71570,Csosz,47.036543,18.4172468,3.0187009999999996
71571,Ketbodony,47.9354371,19.284937,2.677607
71572,Poloske,46.7561356,16.9251748,2.934499
71573,Dedestapolcsany,48.18079270000001,20.484227,3.1541189999999997
71574,Fancsal,48.3556012,21.0640307,2.468347
71575,Magyarszerdahely,46.5554057,16.937305,2.71349
71758,Fokto,46.5290133,18.9192935,3.2057450000000003
71759,Csatalja,46.03652720000001,18.944609,3.1667259999999997
71760,Barbacs,47.645725299999995,17.2963302,2.8549130000000003
71761,Csokonyavisonta,46.0817403,17.444475699999998,3.205475
71762,Mihalyi,47.5157574,17.0950326,3.021603
71763,Tomorkeny,46.6155119,20.0412662,3.243286
71764,Vamosujfalu,48.2576097,21.4503435,2.9329810000000003
71765,Nemeskeresztur,47.0936033,17.1934153,2.396199
71766,Ormosbanya,48.3361933,20.6482777,3.222717
71767,Sajopalfala,48.161481200000004,20.8454228,2.861534
71768,Hangony,48.2260525,20.200728100000006,3.1702619999999997
71769,Jaszago,47.5923279,19.8544871,2.836957
71770,Lovopetri,48.1809669,22.1982747,2.6444389999999998
71771,Tiborszallas,47.814925099999996,22.4079242,2.972666
71772,Lokoshaza,46.429761,21.2307202,3.246006
71773,Zalaapati,46.739154600000006,17.1057152,3.206826
71774,Kapolna,47.7604628,20.2469695,3.1972810000000003
71777,Tarkany,47.5900913,18.0017805,3.191451
71958,Ozora,46.7527198,18.3996749,3.188366
71959,Tottos,45.915899,18.5424532,2.758155
71960,Szakaly,46.5244309,18.3839101,3.173186
71961,Petohaza,47.5980787,16.8954418,3.024486
71962,Kismanyok,46.2735789,18.474827100000002,2.5171959999999998
71963,Nagyivan,47.4860114,20.9327905,3.071514
71964,Szedres,46.47440510000001,18.6848887,3.361539
71965,Nyirtura,48.014414,21.8333843,3.2574389999999998
71966,Mariakalnok,47.861884,17.324328100000002,3.2284
71967,Gyore,46.2960635,18.3987751,2.824776
71968,Lakhegy,46.95218300000001,16.8322618,2.690196
71969,Tolmacs,47.92944310000001,19.1090835,2.840106
71970,Doroghaza,47.987144799999996,19.9003492,3.029789
71971,Csengersima,47.8660813,22.7303134,2.840106
71972,Szebeny,46.1310592,18.5869673,2.571709
71973,Vasarosfalu,47.4548442,17.1178617,2.1959
72158,Petnehaza,48.0571832,22.0812431,3.248709
72159,Kisapostag,46.8932198,18.9329403,3.15045
72160,Hont,48.0500784,18.9912734,2.70757
72161,Pakod,46.956974100000004,16.9941457,2.97174
72162,Csengerujfalu,47.8055429,22.6213416,2.890421
72163,Nagyfuged,47.6819812,20.1038083,3.273464
72164,Tiszaors,47.5080437,20.8201259,3.088136
72165,Kisrozvagy,48.3468041,21.9387597,2.082785
72166,Gyorsovenyhaz,47.690064,17.3737831,2.872739
72167,Vokany,45.911481200000004,18.3362045,2.9122220000000003
72168,Boldogkovaralja,48.3382138,21.2378103,3.035029
72169,Lippo,45.8644965,18.5694627,2.6493349999999998
72170,Attala,46.376572100000004,18.0660777,2.919078
72171,Zalabaksa,46.70680479999999,16.552256099999994,2.804821
72172,Zalahalap,46.9149979,17.4593495,3.111598
72173,Besenyotelek,47.698367,20.4278946,3.409764
72174,Vors,46.66543710000001,17.2703932,2.666518
72175,Takacsi,47.40040070000001,17.469844199999994,2.90309
72182,Rozsaly,47.92323870000001,22.8011193,2.87564
72183,Kunadacs,46.9561969,19.2945534,3.1947919999999996
72184,Mezohek,46.9957193,20.3876133,2.501059
72185,Zalavar,46.6685175,17.1566078,2.961421
72186,Gagybator,48.4342403,20.949807800000002,2.354108
72187,Kissomlyo,47.1440505,17.102509,2.361728
72188,Mera,48.359041999999995,21.1517514,3.238297
72189,Szalanta,45.9473169,18.2373967,3.090963
72190,Misefa,46.8051223,16.9841603,2.481443
72191,Gyulaj,46.5053571,18.294643399999998,2.989895
72192,Mezonagymihaly,47.8106153,20.7309759,3.01368
72193,Kisnyarad,46.0364912,18.5647986,2.267172
72194,Csajag,47.0446777,18.1858906,2.903632
72195,Lickovadamos,46.744892799999995,16.771837599999998,2.292256
72358,Kospallag,47.8745947,18.9340791,2.900913
72359,Obarok,47.4901159,18.569626100000004,2.904716
72558,Nogradkovesd,47.874415,19.3737379,2.814913
72559,Mezocsokonya,46.431662,17.6476233,3.095866
72560,Igar,46.77598010000001,18.5145421,2.9818189999999998
72561,Noszlop,47.1792992,17.458218300000002,2.993436
72564,Gerce,47.2160195,17.0169311,3.0362299999999998
72565,Borsodgeszt,47.9576367,20.6932303,2.390935
72566,Aszofo,46.92888720000001,17.8333945,2.603144
72567,Arokto,47.72816629999999,20.943407500000006,3.021603
72568,Bakonypeterd,47.46542879999999,17.797532399999994,2.445604
72758,Cserszegtomaj,46.8058869,17.23156,3.4466919999999996
72759,Facankert,46.4480102,18.736147100000004,2.8014040000000002
72760,Csikvand,47.46553770000001,17.451049800000003,2.6570560000000003
72761,Kengyel,47.0946274,20.3423729,3.58625
72959,Bakonyjako,47.226332899999996,17.5991434,2.787461
72960,Soponya,47.0111124,18.4558342,3.303196
72961,Matramindszent,47.9802783,19.9324244,2.9020029999999997
72962,Feked,46.160952200000004,18.559912899999997,2.2174840000000002
72963,Rum,47.130186200000004,16.8444792,3.0655799999999997
72964,Olcsva,48.088126700000004,22.324376899999997,2.768638
73158,Tarnaszentmaria,47.8788748,20.202246399999996,2.352183
73160,Szogliget,48.5236809,20.674304199999998,2.782473
73161,Ujtikos,47.9165761,21.1711197,2.957607
73162,Inancs,48.2839181,21.0676407,3.094122
73163,Bicserd,46.022560299999995,18.081546600000006,3.003461
73164,Szugy,48.0362087,19.3331043,3.127753
73165,Nemeshany,47.06950429999999,17.364085,2.608526
73358,Somogybabod,46.6753928,17.7767926,2.689309
73359,Maza,46.2730422,18.3981379,3.08849
73360,Csernely,48.144303,20.342090600000002,2.906335
73361,Kustanszeg,46.785332,16.679892499999998,2.706718
73362,Kirald,48.2496898,20.388306399999998,2.921166
73558,Zalagyomoro,47.0177975,17.226423,2.641474
73559,Garabonc,46.584840899999996,17.1222657,2.8549130000000003
73560,Szentistvan,47.77146010000001,20.6633045,3.369772
73758,Tiszanana,47.5564803,20.5292959,3.3634239999999997
73759,Peneszlek,47.6349848,22.143366399999998,2.971276
73760,Sarand,46.99828529999999,22.1209487,3.34986
73761,Nagydem,47.4387396,17.6743212,2.562293
73762,Gyorasszonyfa,47.4955804,17.8077706,2.693727
73763,Berzek,48.0244838,20.9573107,3.058805
73764,Mezosas,47.1105604,21.5679716,2.771587
73765,Somogyudvarhely,46.1773427,17.1909701,3.0306
73766,Moha,47.2430218,18.333814999999998,2.739572
73958,Alsovadasz,48.240538,20.9059626,3.193681
73959,Pusztamonostor,47.55438710000001,19.7957058,3.198382
73961,Sonkad,48.054592,22.7476738,2.833784
74158,Berente,48.2318559,20.6645424,3.048053
74159,Somlovasarhely,47.1209505,17.376238600000004,3.0413930000000002
74160,Velem,47.34554779999999,16.4938314,2.526339
74161,Darnozseli,47.8504906,17.426901100000002,3.1947919999999996
74162,Kerkafalva,46.7731901,16.4850401,2.049218
74163,Csardaszallas,46.8654397,20.932619199999998,2.645422
74164,Patka,47.27709760000001,18.4870991,3.2116540000000002
74358,Legend,47.87798970000001,19.3110409,2.638489
74359,Ipolydamasd,47.8416337,18.8293542,2.55145
74360,Tabajd,47.40645870000001,18.6264073,2.983175
74361,Vanyarc,47.8246582,19.4522523,3.0913150000000003
74362,Nagyszokoly,46.7226053,18.2092466,2.930949
74363,Magyarszentmiklos,46.537649200000004,16.9359659,2.440909
74364,Banokszentgyorgy,46.545807399999994,16.783415899999998,2.8075349999999997
74365,Nemesbikk,47.8875203,20.965630899999997,2.997823
74558,Pusztavacs,47.173855,19.498132,3.144574
74559,Tiszakarad,48.2028406,21.7200178,3.3577440000000003
74560,Jobahaza,47.5817526,17.1864967,2.721811
74563,Papoc,47.4131032,17.128897,2.457882
74762,Porszombat,46.72892879999999,16.5760102,2.477121
74963,Milejszeg,46.788773,16.7419837,2.5403290000000003
74964,Egyhazasfalu,47.4650681,16.7654427,2.923244
74965,Karako,47.1158682,17.2006645,2.269513
74966,Sopronkovesd,47.5447471,16.744825199999998,3.0748159999999998
74967,Kanya,46.69993710000001,18.0679218,2.605305
74968,Palkonya,45.8953345,18.3907786,2.432969
75163,Kisder,45.9398378,18.128049899999997,2.1038040000000002
75164,Rudolftelep,48.3086485,20.6714478,2.853698
75165,Vancsod,47.1953833,21.6393609,3.086716
75361,Magyaratad,46.4674241,17.900760000000005,2.91698
75561,Hegymagas,46.8333466,17.4330371,2.426511
75761,Gyortelek,47.9284221,22.4406866,3.198657
75961,Dobrokoz,46.424126,18.239254000000006,3.287578
75962,Kocs,47.6054999,18.2132002,3.40841
75963,Gaborjan,47.2398594,21.6576975,2.942504
75964,Kisnemedi,47.737743200000004,19.290126500000003,2.8555189999999997
75965,Szepetnek,46.4335412,16.8994777,3.21272
75966,Lenarddaroc,48.1485817,20.3719699,2.460898
75967,Nyirgyulaj,47.882828,22.0896587,3.288473
75968,Galgaguta,47.8459936,19.3891248,2.762679
75969,Kerekteleki,47.5147378,17.9387389,2.828015
75970,Sarkeresztur,47.0061553,18.5481491,3.40841
75971,Mohora,47.9935415,19.3381818,2.974972
75972,Hegyhathodasz,46.9340458,16.657595,2.190332
75973,Matraderecske,47.94966,20.0827995,3.264582
75974,Korosnagyharsany,47.0074869,21.644095800000002,2.740363
75975,Josvafo,48.482384,20.5525283,2.371068
75976,Egerfarmos,47.71827620000001,20.5363608,2.829304
75977,Ura,47.8179313,22.6050745,2.781755
75978,Olaszfa,47.0135482,16.884110999999994,2.6314439999999997
75979,Malomsok,47.4522052,17.3946156,2.705864
75980,Bakonygyirot,47.4179307,17.8046807,2.1702619999999997
75981,Galambok,46.5222609,17.125780600000002,3.111263
75982,Pogany,45.9841107,18.2604675,3.067443
75983,Hetvehely,46.1321454,18.0441532,2.620136
75984,Zalacseb,46.858179299999996,16.660181299999998,2.70415
75985,Kemes,45.8252143,18.100796300000006,2.673021
75986,Ecsegfalva,47.1493444,20.9228324,3.063333
75987,Rabapordany,47.556920399999996,17.322872399999998,2.994757
76161,Uraiujfalu,47.371219,16.983963100000004,2.9439889999999997
76162,Savoly,46.5914133,17.2692655,2.703291
76163,Babocsa,46.0371105,17.346259,3.185259
76164,Vasboldogasszony,46.9453797,16.868612399999996,2.782473
76165,Zalaszabar,46.6410525,17.1122538,2.733197
76166,Selyeb,48.33968820000001,20.9525512,2.689309
76167,Gelej,47.8295885,20.7739495,2.769377
76168,Vatta,47.9223781,20.7402717,2.936514
76169,Merk,47.781954999999996,22.3783349,3.3165989999999996
76170,Siojut,46.8794113,18.1387818,2.7803169999999997
76171,Nyiri,48.500036200000004,21.440807,2.614897
76172,Marcalto,47.4346329,17.3664994,2.882524
76173,Gorcsonydoboka,46.0708022,18.627386899999998,2.587711
76174,Zakany,46.2516266,16.9495974,2.97359
76175,Mehtelek,47.9318369,22.8475153,2.828015
76176,Lesenceistvand,46.8702653,17.3610091,2.9818189999999998
76177,Homokszentgyorgy,46.115998,17.5689682,3.047275
76178,Vamosoroszi,47.9921273,22.6817762,2.691965
76179,Taliandorogd,46.9794529,17.5687983,2.866287
76180,Veszpremvarsany,47.4255427,17.8325392,2.9912259999999997
76181,Szanda,47.9278532,19.440413600000007,2.782473
76182,Gacsaly,47.930888,22.7567922,2.9508509999999997
76183,Banreve,48.29714439999999,20.3555872,3.104146
76184,Markotabodoge,47.6817436,17.31044,2.646404
76185,Gater,46.6835342,19.957731,2.984977
76186,Hencida,47.2507833,21.6955412,3.1055099999999998
76187,Duka,47.1252146,17.1123194,2.3384560000000003
76188,Parasznya,48.1691585,20.6407414,3.0666990000000003
76189,Csecse,47.8654691,19.6252588,2.9523080000000004
76190,Paloznak,46.98334570000001,17.9408772,2.639487
76361,Fertoszeplak,47.6169895,16.8342909,3.119915
76362,Tiszatarjan,47.83461240000001,21.0010508,3.148603
76363,Bodvarako,48.5103419,20.7364124,1.973128
76364,Adand,46.8570109,18.1541377,3.342225
76366,Gelse,46.6021784,16.989453,3.023664
76367,Bodony,47.9422866,20.023812200000002,2.853698
76368,Tiszagyulahaza,47.94308839999999,21.1413026,2.848189
76369,Hagyarosborond,46.910438799999994,16.7045547,2.4843
76370,Kisar,48.057080600000006,22.5153076,3.02284
76371,Sajovamos,48.1819258,20.831239,3.342423
76372,Magyaralmas,47.2956951,18.3241789,3.186674
76373,Szuhogy,48.3842706,20.6744642,3.073352
76374,Kiskutas,46.912239899999996,16.795225,2.235528
76375,Ujszentmargita,47.7271809,21.1028209,3.1458180000000002
76376,Csincse,47.8883059,20.767822600000002,2.749736
76377,Cirak,47.4781801,17.0299729,2.754348
76378,Somogyharsagy,46.1610505,17.7731163,2.63749
76379,Sormas,46.4605637,16.9157999,2.937016
76380,Szalafo,46.865519,16.3635907,2.311754
76381,Pinnye,47.587107399999994,16.7686191,2.5065049999999998
76382,Legyesbenye,48.1602248,21.1495954,3.180699
76383,Hetes,46.4218819,17.6950824,3.059185
76384,Almosd,47.4154029,21.9838127,3.1917299999999997
76385,Nagyvarsany,48.1602115,22.278372,3.156549
76386,Egerbocs,48.0253345,20.2615078,2.725095
76387,Inke,46.3947291,17.1994768,3.097257
76388,Fulop,47.5990893,22.0562573,3.24005
76389,Csornyefold,46.498843,16.6333646,2.6646419999999997
76390,Csonkahegyhat,46.801035,16.7199807,2.5502279999999997
76391,Kamond,47.14832420000001,17.203441,2.623249
76392,Pusztadobos,48.0553214,22.2243114,3.131298
76561,Kamut,46.76031500000001,20.9832753,2.996074
76562,Iharosbereny,46.3634045,17.1128434,3.072618
76563,Hegyhatszentjakab,46.8681648,16.5472519,2.416641
76564,Szabolcsveresmart,48.2949824,22.0227297,3.2214139999999998
76565,Felsonyarad,48.32893060000001,20.5985989,2.9912259999999997
76566,Kavas,46.8619846,16.708671900000002,2.389166
76567,Paszab,48.1415281,21.6654037,3.107549
76568,Nagygeresd,47.3948689,16.9322219,2.416641
76761,Vallaj,47.764162400000004,22.382185,2.941511
76961,Pankasz,46.8381922,16.499640300000006,2.618048
76962,Dombiratos,46.4223416,21.1186823,2.720986
77161,Mezoszemere,47.7473141,20.5191824,3.090611
77162,Aranyosapati,48.2122856,22.2567426,3.296446
77163,Szuha,47.9781794,19.9176663,2.781037
77362,Mikohaza,48.4651541,21.5907716,2.760422
77363,Ohid,46.96102910000001,17.1675337,2.7481880000000003
77364,Magyarboly,45.8403877,18.4917543,2.976808
77365,Matetelke,46.1611622,19.2782099,2.698101
77366,Sopronhorpacs,47.4838028,16.7387483,2.915927
77561,Herencseny,47.974606,19.472579100000004,2.789581
77562,Litke,48.21203,19.5988323,2.921166
77563,Kisbabot,47.5558778,17.4172862,2.311754
77564,Okoritofulpos,47.919036,22.5090032,3.248464
77565,Nyirbogdany,48.0578271,21.8722554,3.462248
77566,Hidegseg,47.6251989,16.7413826,2.583199
77567,Sokoropatka,47.484475,17.7006111,3.033826
77568,Ivandarda,45.832564,18.5911168,2.40654
77569,Kerta,47.1622477,17.274485600000002,2.772322
77570,Szamosker,48.0175843,22.4167568,2.597695
77571,Tornyiszentmiklos,46.51616729999999,16.5563863,2.789581
77572,Vajdacska,48.319138,21.6542714,3.114611
77761,Hegyfalu,47.354014299999996,16.882336300000002,2.885926
77762,Korosszegapati,47.0412776,21.634681399999998,2.9454689999999997
77763,Hahot,46.6488833,16.922799100000002,3.023252
77764,Porva,47.3076129,17.8165925,2.638489
77765,Dravaszabolcs,45.8058332,18.210885,2.846955
77766,Bolho,46.03916829999999,17.2954232,2.857332
77767,Apacatorna,47.11190070000001,17.295398300000002,2.2121880000000003
77768,Goganfa,47.021478,17.186384399999998,2.87564
77769,Sored,47.322686600000004,18.2807421,2.703291
77772,Tiszaug,46.8516867,20.0579352,2.95376
77773,Kokeny,46.0008406,18.20463,2.791691
77963,Adasztevel,47.3041008,17.540070899999996,2.887054
77964,Alsonana,46.2488549,18.6599879,2.838219
77965,Bejcgyertyanos,47.1487154,16.9230274,2.656098
78161,Bocsa,46.6173337,19.481614899999997,3.262451
78361,Torokkoppany,46.6013936,18.0506298,2.691965
78362,Petrivente,46.4402323,16.8402915,2.5465430000000002
78368,Paradsasvar,47.9121032,19.978067499999998,2.611723
78567,Szentpeterszeg,47.2365783,21.6204039,3.041787
78568,Dobronhegy,46.8162537,16.7472857,2.136721
78569,Felsodobsza,48.255255700000006,21.0748737,2.9454689999999997
78570,Vindornyalak,46.88612910000001,17.1940729,1.9084849999999998
78761,Nagocs,46.6628683,17.957798399999994,2.830589
78962,Ujkenez,48.2498882,22.224270100000002,3.009026
78963,Sajooros,47.9511834,21.0221987,3.1280759999999996
78964,Nagypall,46.1447737,18.4572422,2.628389
78965,Venek,47.7394914,17.759460699999995,2.267172
78966,Badacsonytordemic,46.8120251,17.473685699999994,2.913814
78967,Oregcserto,46.5147994,19.1068902,2.876795
79161,Hajdubagos,47.38976470000001,21.6659245,3.294907
79162,Horvatzsidany,47.4108761,16.6251867,2.8876169999999997
79163,Egyed,47.5217162,17.3378908,2.71349
79361,Bezi,47.674808899999995,17.3887176,2.70757
79362,Tiszasas,46.82111389999999,20.0799597,2.993436
79363,Csatka,47.37926,17.9772827,2.365488
79364,Nyirmihalydi,47.73253010000001,21.9660572,3.3034120000000002
79564,Matraszele,48.0553975,19.893917000000002,3.00303
79961,Belavar,46.1216915,17.2149293,2.534026
79962,Kethely,46.6469444,17.3933315,3.361161
79963,Nagytalya,47.817080499999996,20.4076205,2.926342
79964,Szarazd,46.56998400000001,18.4261435,2.404834
79965,Tiszamogyoros,48.3204417,22.2312938,2.796574
79966,Zalaszentgyorgy,46.8723459,16.7042027,2.634477
79967,Vereb,47.31994829999999,18.617828600000006,2.895422
79968,Pirto,46.5127204,19.4371308,2.97359
79969,Erdohorvati,48.3147908,21.4275388,2.736397
79970,Gyulakeszi,46.8679104,17.4808152,2.8419849999999998
79977,Borsodbota,48.2118128,20.3963817,2.9329810000000003
80161,Nagydobos,48.0527087,22.305177,3.327972
80162,Baksa,48.2232612,21.0295939,2.885926
80163,Babot,47.5760021,17.0756829,3.040207
80164,Bogote,47.087327200000004,17.0436719,2.457882
80165,Papakovacsi,47.2656243,17.4860496,2.725912
80166,Hevesvezekeny,47.5572406,20.3578497,2.786041
80167,Almashaza,46.8425257,17.0473307,1.8388490000000002
80168,Pamleny,48.4948465,20.928480800000006,1.6434529999999998
80169,Mersevat,47.289460999999996,17.204953500000002,2.7512790000000003
80170,Bajansenye,46.8016151,16.384218,2.658011
80171,Boncodfolde,46.86864979999999,16.7384437,2.541579
80361,Kazar,48.0503365,19.8544997,3.285557
80362,Szentimrefalva,47.072983,17.2820087,2.311754
80561,Harc,46.402994799999995,18.617725399999998,2.954725
80562,Csonge,47.3521219,17.0654785,2.558709
80563,Soltszentimre,46.7710797,19.2869057,3.100715
80564,Orvenyes,46.914828,17.8164988,2.2174840000000002
80565,Vaspor,46.9167061,16.643266099999998,2.5751880000000003
80761,Balatonszepezd,46.8518266,17.6637569,2.611723
80762,Gencsapati,47.2888131,16.594411800000003,3.457731
80763,Nyirmeggyes,47.9136955,22.2641364,3.403464
80764,Oszko,47.0464985,16.8745229,2.8162409999999998
80765,Almamellek,46.1575387,17.8741358,2.6314439999999997
80766,Nagyvisnyo,48.1397015,20.4229656,2.972203
80961,Sajoecseg,48.1912315,20.7757477,3.00303
81161,Repcevis,47.4405129,16.674012400000002,2.523746
81162,Szorosad,46.60148710000001,18.023349600000003,1.9542419999999998
81163,Zalaszanto,46.8877805,17.2258253,2.998259
81361,Kismarja,47.248129,21.8221047,3.082785
81362,Napkor,47.9422745,21.8684282,3.566555
81561,Demjen,47.8294575,20.3335923,2.770852
81562,Nagyloc,48.0354309,19.5726013,3.189771
81563,Pahi,46.7158141,19.382738600000003,3.073352
81564,Szakony,47.4258286,16.7158326,2.60206
81565,Atany,47.6165092,20.3628057,3.130655
81761,Gulacs,46.829456,17.5009878,2.9003669999999997
81762,Pecsudvard,46.0096664,18.276252,2.87564
81763,Petrikeresztur,46.73614620000001,16.7243071,2.567026
81764,Oszlar,47.872045,21.0353402,2.593286
81765,Szatta,46.7988919,16.4804421,1.812913
81766,Ivanc,46.9393738,16.4983823,2.8494189999999997
81767,Kantorjanosi,47.9359448,22.1489345,3.3255160000000004
81961,Csipkerek,47.07379279999999,16.9413683,2.5078560000000003
81962,Magyarlak,46.9518924,16.3486678,2.863917
81963,Szentkiralyszabadja,47.0565157,17.970531899999994,3.3081370000000003
81964,Girincs,47.9698386,20.984582500000002,2.962369
81965,Zalaber,46.973973,17.028507100000002,2.848805
81966,Nyirad,47.0054415,17.454559399999994,3.285107
81967,Boszenfa,46.229918299999994,17.850510999999994,2.754348
81968,Csapod,47.5187717,16.9273194,2.718502
81969,Kompoc,46.467104799999994,19.865514,2.843855
81970,Nyarad,47.2829876,17.3611691,2.9527919999999996
81971,Vanyola,47.385037200000006,17.5970426,2.7387799999999998
81972,Kemenesmagasi,47.3317908,17.2111415,2.9100900000000003
81973,Hejokurt,47.8556105,20.9929385,2.498311
81974,Puski,47.887217299999996,17.4056883,2.806858
82161,Vamoscsalad,47.38981679999999,16.9709168,2.49693
82162,Tiszasziget,46.1747699,20.1621333,3.243286
82163,Dravacsehi,45.81104129999999,18.1665548,2.3304139999999998
82361,Gemzse,48.139532,22.1942568,2.934499
82362,Nagylok,46.9779055,18.644830600000002,3.024896
82562,Vasarosmiske,47.2074372,17.062345999999998,2.5453069999999998
82563,Uszod,46.5697854,18.9053538,3.003461
82564,Kuncsorba,47.128267799999996,20.555283399999997,2.767156
82765,Szalatnak,46.2891861,18.2801287,2.518514
82766,Hegyhatsal,46.960057,16.6423118,2.130334
82767,Aka,47.4048171,18.0699103,2.444045
82768,Egyhazaskozar,46.3313299,18.3166707,2.898725
82961,Felsomarac,46.9334097,16.519623499999998,2.416641
82962,Nyirkarasz,48.0969023,22.1001962,3.3609720000000003
82963,Szabolcs,48.1718359,21.4954557,2.599883
82965,Opalyi,47.995763,22.3223431,3.454387
83161,Kotelek,47.3364243,20.4355722,3.196176
83162,Zalaboldogfa,46.8987566,16.770073999999994,2.559907
83163,Ramocsahaza,48.0408934,21.9892728,3.168203
83561,Homorud,45.9848292,18.787982999999997,2.792392
83562,Lukacshaza,47.336540299999996,16.581593599999998,3.025715
83563,Buj,48.0990777,21.646486,3.343606
83564,Porboly,46.2051149,18.812365399999997,2.726727
83565,Himod,47.51969920000001,17.0076569,2.774517
83566,Sarszentagota,46.9705991,18.5665592,3.129045
83568,Bo,47.369123200000004,16.8154521,2.80618
83761,Kisvarsany,48.1449512,22.2980272,2.994757
83762,Gerde,45.99081339999999,18.0261174,2.7160029999999997
83763,Berkesd,46.076158,18.408533300000002,2.936514
83764,Labod,46.2077491,17.4540815,3.2922559999999996
83765,Csikostottos,46.3404713,18.1557109,2.941014
83766,Szakald,47.9421183,20.907707100000003,2.7151669999999997
83961,Fabiansebestyen,46.67381629999999,20.4506481,3.3053510000000004
83962,Alsopeteny,47.874758,19.2448933,2.823474
84361,Kiskorpad,46.36313670000001,17.609327899999997,2.967548
84362,Nagyer,46.3703731,20.7292276,2.681241
84562,Diosbereny,46.53375910000001,18.4449594,2.547775
84761,Koppanyszanto,46.5929144,18.1117673,2.491362
84762,Balvanyos,46.78166210000001,17.952069100000006,2.723456
84763,Felsojanosfa,46.8429359,16.5532584,2.262451
84764,Csabaszabadi,46.5746387,20.9531699,2.525045
84765,Zsurk,48.4106284,22.2184353,2.847573
84766,Moricgat,46.621443400000004,19.6857216,2.680336
84767,Ofeherto,47.9355537,22.0342724,3.40671
84768,Somogydorocske,46.587194200000006,18.0063187,2.082785
84769,Kup,47.2480471,17.465678600000004,2.661813
84770,Malyinka,48.1538861,20.4951999,2.676694
84771,Beleg,46.31605250000001,17.4105654,2.775974
84772,Homokmegy,46.48798789999999,19.0737359,3.122544
84773,Adorjanhaza,47.2431039,17.239537,2.528917
84774,Nagyhajmas,46.3743383,18.2892032,2.531479
84775,Kondorfa,46.8966494,16.392934099999998,2.7242759999999997
84776,Papkeszi,47.0820136,18.0817311,3.1950689999999997
84961,Kompolt,47.7427765,20.240174,3.3218050000000003
84962,Csanytelek,46.60887320000001,20.1016072,3.440122
84963,Nyesta,48.3698831,20.9518757,1.716003
84964,Vese,46.4118616,17.291196499999998,2.873321
84965,Kistotfalu,45.9085402,18.3114217,2.510545
84966,Vasszecseny,47.1817551,16.767961800000002,3.151063
84967,Tiszainoka,46.9060986,20.152248699999998,2.618048
84968,Zselicszentpal,46.3061794,17.8214905,2.579784
84969,Ostffyasszonyfa,47.3274607,17.042819199999997,2.884795
84971,Dunaremete,47.8766438,17.437091,2.382017
85161,Alsonyek,46.2034654,18.7343721,2.87564
85162,Sarkeszi,47.158254799999995,18.285122100000002,2.786041
85163,Hidegkut,47.0011829,17.828475100000006,2.64836
85164,Urkut,47.0824725,17.6436593,3.313656
85165,Egyhazashetye,47.1695366,17.1197109,2.5078560000000003
85361,Szarfold,47.5943178,17.1228148,2.9527919999999996
85362,Szentbekkalla,46.8864519,17.564579100000003,2.269513
85363,Kapoly,46.7307524,17.9702331,2.8286599999999997
85364,Kiscsehi,46.5211833,16.6736089,2.227887
85365,Nagypirit,47.2003219,17.2253537,2.404834
85366,Barabas,46.6790302,16.5576343,2.872739
85367,Szoce,46.88786029999999,16.5698297,2.537819
85561,Sajoivanka,48.2661062,20.5793709,2.781755
85761,Bukkzserc,47.9549235,20.5064046,2.9777240000000003
85762,Edve,47.455319,17.134342999999998,2.025306
85763,Kevermes,46.4173989,21.179322,3.2871300000000003
85764,Balaton,46.8836527,17.846663499449168,3.016197
85765,Felsopahok,46.7844916,17.1559057,2.80618
85766,Narai,47.1933562,16.5535138,3.108227
85767,Felsorajk,46.6809597,16.9863145,2.860338
85768,Cegenydanyad,47.9357542,22.547649,2.824776
85769,Radostyan,48.180091299999994,20.650349,2.771587
85770,Nemesrado,46.7781374,16.9941633,2.494155
85771,Kovagoors,46.8490382,17.601609600000003,2.9041740000000003
85772,Nyirbogat,47.8014742,22.0620214,3.5002370000000003
85773,Kolontar,47.0870815,17.473781699999996,2.853698
85774,Or,47.9763231,22.1825557,3.155336
85775,Viszak,46.8823656,16.4972853,2.390935
85776,Alsotold,47.95407460000001,19.59694,2.385606
85777,Bodroghalom,48.3035732,21.704878,3.114944
85778,Kemendollar,46.904585499999996,16.9435556,2.70757
85779,Old,45.788878499999996,18.3517467,2.526339
85780,Rabahidveg,47.0724997,16.7421425,2.977266
85781,Kisbarapati,46.6029797,17.8660958,2.614897
85782,Dravasztara,45.8256215,17.822729000000006,2.599883
85786,Egeralja,47.2369298,17.2405707,2.3692159999999998
85787,Vizvar,46.0895204,17.2295719,2.71349
85788,Orhalom,48.077756799999996,19.4102605,3.002166
85789,Und,47.1817585,19.5060937,2.498311
85790,Nemesgulacs,46.83475900000001,17.4833775,2.9818189999999998
