CityId,CityName,PopLog,eov_x,eov_y,Latitude,Longitude
379,Budapest,6.240559999999999,649474.4583884269,239382.88586875534,47.4983815,19.0404707
380,Debrecen,5.317215,844116.7500649805,246253.4334351684,47.531399,21.6259782
381,Miskolc,5.222256,779793.9226847866,308070.94016217825,48.1031503,20.7901985
382,Szeged,5.230582,734907.1791773215,101719.09492085256,46.25463120000001,20.1486016
383,Pecs,5.195349,586608.5638559178,81633.51164963366,46.0763222,18.228074600000006
384,Gyor,5.119137,543945.1923395968,261380.74068936164,47.687609,17.6346815
385,Nyiregyhaza,5.070621,849340.8059821835,293640.18052640255,47.9557802,21.7167982
386,Kecskemet,5.057765,699164.0284618008,173962.21021507558,46.9080769,19.6928133
387,Szekesfehervar,5.007415,601756.1754314773,205409.84972533537,47.1910169,18.410811
388,Szombathely,4.899536,466116.15310765663,212307.66832145027,47.2291184,16.6187625
389,Szolnok,4.8712279999999994,736958.8940034744,204120.03748920877,47.1754555,20.1946818
390,Tatabanya,4.845117,601151.0557193856,249080.59360301873,47.5837788,18.3980308
391,Kaposvar,4.830499,553120.4728736363,113223.73993109119,46.35646920000001,17.788688600000004
392,Bekescsaba,4.804494,805982.0109758475,150992.96323483565,46.6849789,21.0866918
393,Zalaegerszeg,4.791333,482074.5313840026,168735.25716230282,46.8415803,16.8456316
394,Veszprem,4.806343,563953.1828022519,194919.95749334947,47.0928058,17.9140147
395,Erd,4.81476,640486.939984679,225929.00385681432,47.377294899999995,18.9214718
396,Eger,4.749474,749212.9864897509,284764.4609608821,47.8989887,20.3743665
397,Sopron,4.7880980000000015,466142.7745198407,262491.9557177373,47.6803063,16.5983457
398,Dunaujvaros,4.681332,641800.4772091953,180318.31711938445,46.9670241,18.9397061
399,Nagykanizsa,4.692864,492134.0557696158,125453.29939224766,46.4548261,16.992392300000002
1682,Szentendre,4.419129,652148.1761462337,258214.49390226707,47.6677606,19.0760467
1702,Esztergom,4.483359,626987.4752423036,271372.2809132963,47.7856977,18.7403349
1722,Budakeszi,4.1615779999999996,641106.7298687843,240675.19293736975,47.5099444,18.929382
1742,Vac,4.541704,656024.6411875939,270505.8805411627,47.778287299999995,19.1278294
1762,Budaors,4.4713650000000005,642968.1063616861,235122.1365688219,47.4600185,18.9541818
1782,Godollo,4.53367,673013.77114365,251313.10176191392,47.60528710000001,19.3535185
1802,Pomaz,4.233022,648210.8981378474,255886.36106983738,47.64682120000001,19.0236304
1822,Baja,4.572058,642559.8711430945,92663.2398300452,46.178496700000004,18.9511186
1842,Szekszard,4.522588,623380.8967930559,111614.44460096811,46.3484884,18.701663
1862,Gyongyos,4.510344,716073.0490242883,271063.37098261423,47.7799838,19.9291176
1882,Dunakeszi,4.605671,656159.6579921459,254204.67531452785,47.6316697,19.1294055
1902,Szigetszentmiklos,4.542539,649505.4568636656,222416.02527096195,47.345765,19.0409037
1922,Balassagyarmat,4.207715,668269.7464709518,303732.8061038795,48.07688320000001,19.2926037
1942,Budakalasz,4.021603,649955.8437360773,252823.87120397616,47.6192785,19.0468565
1962,Siofok,4.386945,574329.4210197775,174140.67082650747,46.9071694,18.0541598
1982,Tata,4.396304,595209.7680730948,256505.38777187408,47.6500863,18.3181275
2002,Jaszbereny,4.43014,715114.593961341,240261.20112768465,47.5030505,19.9117887
2003,Solymar,4.012078,641558.1043124177,249563.05219218333,47.5898936,18.9352034
2022,God,4.268695,656510.4158345619,259960.20740928987,47.6834336,19.1341568
2023,Gyula,4.500772,820493.6643654305,146817.06732724697,46.64386560000001,21.2747575
2042,Torokbalint,4.133123,639860.6540458908,232340.6134386865,47.43495789999999,18.9130312
2062,Cegled,4.577239,706877.2095520515,203331.561061738,47.1716447,19.7977516
2063,Keszthely,4.320043,512434.71327955264,159720.66455613106,46.7675081,17.2462801
2082,Szazhalombatta,4.27637,639767.1900797511,219249.30349225152,47.31719920000001,18.9120948
2083,Paks,4.2902569999999995,635561.3539467714,142081.89312520094,46.6229468,18.8589364
2084,Mosonmagyarovar,4.514812999999998,517209.5760134976,282563.4464029488,47.8731793,17.2722342
2102,Dombovar,4.289901,579668.2678044703,115236.72565439678,46.3778989,18.1332865
2103,Salgotarjan,4.5619,706101.2917352687,306107.31163220655,48.09606760000001,19.8005642
2104,Tiszaujvaros,4.218982,799391.5017080789,289062.062752898,47.92803410000001,21.046705600000006
2105,Dunaharaszti,4.30664,653617.3615280526,223996.91733446368,47.359976,19.0953357
2122,Sarospatak,4.1000260000000015,836739.9166130638,333934.01935365854,48.3216823,21.5655524
2142,Papa,4.505855,530812.7225668111,221434.58872172603,47.326108700000006,17.4705293
2143,Kiskunfelegyhaza,4.4767160000000015,711384.8363593383,152203.2161659152,46.7113263,19.8502905
2144,Hodmezovasarhely,4.667658,747798.275836179,119980.86091138469,46.4171344,20.3196068
2145,Kazincbarcika,4.457337,766954.3363122066,324626.6333346964,48.2544414,20.6223251
2146,Pilisvorosvar,4.138871,639785.9175364649,253032.24068308843,47.6210717,18.9115602
2147,Kiskunhalas,4.453730999999999,683512.0806024021,120464.48102125291,46.4277979,19.4834524
2342,Piliscsaba,3.923296,633367.547386602,254366.68163041776,47.6329416,18.8261229
2742,Kalocsa,4.2294,645015.7425554716,130959.22086952806,46.5230265,18.9825043
2743,Ajka,4.463266,537011.0900877943,196801.1538509607,47.1056579,17.5587276
2744,Nagykovacsi,3.8385339999999997,637558.1467693449,248051.80836377604,47.5762363,18.882064
2942,Fot,4.278021,661319.5713573478,252090.69124961918,47.612587100000006,19.1980105
2943,Pecel,4.188562999999999,672397.3314511756,238617.8861900267,47.4911201,19.3446801
2944,Balatonfured,4.131362,561821.6911778733,179822.32095157303,46.9567254,17.888892000000006
3142,Hatvan,4.306618,697083.3667845546,258473.16768288333,47.6683971,19.6743874
3143,Mako,4.372415,760161.0783921835,97726.21583388146,46.2150438,20.4751022
3342,Koszeg,4.081167,460778.45498680463,230314.29299389708,47.3894949,16.5406843
3542,Mor,4.153967,586713.1645387389,225668.02754157598,47.37195870000001,18.2094428
3543,Kisvarda,4.216773,875170.0508621229,324624.00454669923,48.2257593,22.0784247
3742,Veresegyhaz,4.227681,667986.3983756835,256848.85143693027,47.655235,19.2868815
3942,Oroshaza,4.461048,774351.658951797,136393.05640885577,46.5603339,20.6693477
3943,Biatorbagy,4.107379,633103.4023490873,236690.47241011483,47.47394420000001,18.8232855
3944,Ozd,4.528274,742747.6669090466,320319.1319930307,48.2196425,20.295498600000002
3945,Dunafoldvar,3.937819,640447.2232746258,162913.15146276128,46.810432,18.9222921
4142,Paszto,3.980867,698760.2672987595,286583.9632420566,47.9210914,19.6998353
4143,Dabas,4.225645,670882.2278409565,203238.69297280587,47.1729302,19.3229242
4144,Vecses,4.320354,666405.2793760629,229517.28408471425,47.4094382,19.2648259
4342,Tapolca,4.193013,527410.8630461227,172134.74237333602,46.8820972,17.4389619
4542,Mezokovesd,4.218483,763738.8598448281,275105.03371052345,47.8097525,20.5660889
4543,Bicske,4.066028,618981.5814382693,238611.65567136777,47.4907066,18.6358046
4544,Kistarcsa,4.078276,666274.1908823693,244558.26047834824,47.54473220000001,19.2636378
4742,Bonyhad,4.138018,610298.7369447446,106121.02788434915,46.29842120000001,18.532191
4743,Oroszlany,4.270143,594795.4536599027,238677.20631257968,47.4897011,18.3148401
4744,Hajduszoboszlo,4.3675239999999995,826673.9314394998,235886.0851172777,47.4431291,21.3902995
4942,Monor,4.2647,680173.7389994967,223268.51633040217,47.35274329999999,19.4468404
5142,Diosd,3.978728,642257.3844867193,229146.0683747778,47.406256,18.9448604
5143,Rackeve,4.000955,642127.7174616717,201878.60930171065,47.1609765,18.9436266
5144,Pilisszentivan,3.6394870000000004,638684.1586361135,251752.86200342738,47.6095461,18.8969359
5145,Szarvas,4.230628,764721.456278917,169756.6912946821,46.8621434,20.5521466
5342,Dorog,4.079036,626288.385918415,264330.65448757133,47.7223403,18.7313867
5343,Nyergesujfalu,3.8780620000000003,613046.4515097399,268673.86556234065,47.7607852,18.5545212
5344,Tolna,4.055646,608350.5655873233,127246.86187171309,46.488344700000006,18.5050005
5345,Balatonalmadi,3.9622269999999995,571922.1237113687,188468.27001537755,47.035766,18.0200896
5346,Szentes,4.454479,742553.7551115633,146053.7857297833,46.6524049,20.2566408
5542,Kormend,4.067294,464022.11189766024,188299.08519149083,47.0126655,16.6010475
5543,Kiskoros,4.154089,668091.8031121666,141840.84920878103,46.6206925,19.2836756
5742,Celldomolk,4.0328599999999994,506572.3157886459,214395.91711276045,47.2579643,17.1521883
5743,Paty,3.859258,633406.1601801702,241221.1094116785,47.514704,18.8271319
5942,Gyomro,4.221936,676185.4543985816,230986.5432248408,47.4223375,19.394503
6142,Nagykoros,4.387976999999999,706151.0724702633,188403.43235353328,47.03742570000001,19.7863141
6143,Csomor,3.96506,663305.4995917178,245015.95474213274,47.5489158,19.2242144
6144,Szigetvar,4.032296,553392.0191836966,78862.30663737444,46.0474395,17.799351100000006
6145,Kisujszallas,4.055646,779300.6866317188,209423.54232445406,47.2162053,20.7546669
6146,Varpalota,4.307603,581105.5265765318,206467.92449669013,47.198695,18.138157
6342,Mateszalka,4.229349,894434.7124137073,295146.6702239675,47.9539113,22.3208477
6343,Ecser,3.569842,670439.2178729554,233428.07030970827,47.44450250000001,19.3184563
6542,Martonvasar,3.7642510000000002,630431.9259085499,218930.73939465598,47.3141209,18.7886273
6543,Csongrad,4.226497,740680.3213677271,123691.65986950998,46.4515164,20.227760600000003
6742,Sarvar,4.169204,490061.96971959004,214127.6622249653,47.2517426,16.9342165
6743,Komlo,4.398287,589313.494276789,94372.9929753205,46.1911673,18.2613778
6744,Barcs,4.056066,527198.4326309355,69675.10765581949,45.96053660000001,17.463434200000002
6745,Tamasi,3.92371,591615.4270770422,143066.86948008285,46.62939779999999,18.2850331
6746,Albertirsa,4.093772,692796.3338935393,211449.34104665203,47.2457295,19.6127835
6747,Satoraljaujhely,4.18625,843179.9614579706,342425.8994723972,48.39609779999999,21.6561497
6942,Pannonhalma,3.595165,552661.1312970992,245950.53435996303,47.5502015,17.7541679
7142,Karcag,4.3005949999999995,791867.7850129011,220657.9717205593,47.314646,20.9240941
7143,Tiszafured,4.02914,778003.7752480556,253528.44382395674,47.6130877,20.7502258
7144,Torokszentmiklos,4.323108,753206.5330599732,204814.38636861046,47.1793568,20.409153
7145,Heviz,3.640978,507698.1202910279,162399.84957738555,46.79060379999999,17.1834489
7343,Hajduboszormeny,4.495627,834739.5790909985,261553.5948727314,47.6716617,21.5078944
7542,Gyal,4.3708089999999995,662825.0413558242,226741.04605334022,47.3845453,19.2173066
7742,Pilis,4.059185,687768.3288621805,215899.82950626092,47.2860696,19.5467411
7743,Tarnok,3.966236,636295.8039894799,224779.30760102434,47.3668787,18.8660065
7942,Balatonboglar,3.7732010000000002,543692.2222244649,160309.90911424183,46.7785548,17.6553063
7943,Sulysap,3.9186589999999994,685744.5376520731,234585.69354771028,47.45426060000001,19.5214828
7944,Solt,3.7983050000000014,646731.8663459424,161997.52066659264,46.8022565,19.0046438
8142,Mohacs,4.269606,621690.5941770423,72147.02937501838,45.9933836,18.6821079
8143,Mezotur,4.238974,770341.5726485911,185247.68048797536,47.0004724,20.6299513
8144,Marcali,4.0632209999999995,524684.0903115761,138974.91995055194,46.5833484,17.412300199999994
8145,Tab,3.627571,572921.0718628694,155038.77803449784,46.7351826,18.0389133
8342,Balatonlelle,3.6753199999999997,546854.9166958627,161166.79982221176,46.7867617,17.696520899999996
8343,Velence,3.729084,620703.5245961922,210210.47922524638,47.2353177,18.6605263
8344,Ullo,4.058236,672490.8205005411,226827.1284411706,47.3850605,19.3453263
8345,Lenti,3.9015129999999996,457743.54905679467,145335.74559649467,46.6245749,16.5366668
8542,Zsambek,3.73878,625159.7073473934,244986.6282770834,47.5483115,18.7174344
8543,Nagyatad,4.030762,519602.06756319007,99700.331787,46.229143,17.357096399999996
8544,Ocsa,3.960756,663907.9536596242,217476.7171802222,47.3011895,19.2313617
8742,Abony,4.172486,722547.4212103529,205403.13030584255,47.1887402,20.0047823
8743,Tokol,4.0177010000000015,643634.6370063215,219852.9834466398,47.3226787,18.9632427
8744,Taksony,3.8057730000000003,651129.25750503,220661.0505620649,47.32997810000001,19.0623899
8745,Mezobereny,4.037267,801232.0541107709,166440.4282207876,46.82499620000001,21.0297382
8942,Puspokladany,4.167258,806078.0050003,221564.87462197692,47.3195803,21.1123019
8943,Szigethalom,4.241447,646427.5725874071,220053.8206407928,47.3245067,19.0001884
8945,Tiszavasvari,4.098678,823302.7988433017,292902.381297071,47.956619,21.3680532
8946,Kapuvar,4.015066,498101.9005949474,251945.33118067813,47.59370429999999,17.0274824
8947,Bekes,4.295853,797702.789835757,162049.06874209523,46.7862993,20.9820736
8948,Fonyod,3.6746769999999995,535542.7371344819,156924.85895157888,46.7467521,17.54946
9142,Ercsi,3.903036,638716.2294419503,211999.68666522484,47.2519697,18.8983773
9143,Nagykata,4.099093,703043.9731832991,230219.55231722107,47.4138187,19.7503736
9144,Aszod,3.807129,682099.4922301953,256690.76281926755,47.6532732,19.4747432
9145,Halasztelek,3.96895,644991.7340127208,224345.89251349747,47.363105,18.9811444
9146,Mogyorod,3.801747,664361.4246467919,250549.29666517768,47.5986636,19.2384215
9342,Siklos,3.9836709999999997,591790.899750537,56653.657065306004,45.852096,18.2981568
9343,Sarbogard,4.095098999999999,617394.4937736335,171555.0654512235,46.88743710000001,18.6196247
9542,Gardony,3.996818,618084.7664487511,206630.21923365517,47.2029902,18.6261959
9544,Tura,3.888236,691163.2140912887,251863.70648507058,47.60935,19.594944199999997
9545,Fertod,3.5392010000000003,485942.9678651836,255379.96401436444,47.6216447,16.8645968
9546,Soltvadkert,3.871164,676581.4922080454,137573.5778524195,46.5820205,19.3942728
9742,Turkeve,3.941561,778129.0793359104,197504.83775807524,47.10924470000001,20.7358057
9942,Etyek,3.64365,627602.2272734472,233477.81597707278,47.4448813,18.7504665
9943,Isaszeg,4.05679,676674.199434009,242995.27877312817,47.53033350000001,19.401700100000006
9944,Tokaj,3.6847559999999997,825977.0483360828,311553.6369252166,48.1235534,21.4113895
9945,Zirc,3.851014,561032.1318606519,213705.0444179355,47.2613795,17.8718188
9946,Pusztaszabolcs,3.7779339999999997,628014.2313195043,199424.3180433904,47.1385777,18.7576092
9947,Szerencs,3.9590410000000014,810203.9361137138,315529.10761781683,48.1633851,21.201088100000003
9948,Pilisszentkereszt,3.3481099999999997,639114.5713054183,261046.6943949304,47.6931455,18.9024298
9949,Tiszakecske,4.050651,730492.7489076608,176910.18419152455,46.9315289,20.1045358
9950,Dunabogdany,3.512551,649083.1723164921,272226.86418531154,47.7937922,19.0352037
9951,Szentgotthard,3.946403,438998.56303120044,182482.10483128132,46.952850700000006,16.2748541
9952,Csorna,4.027309,514866.8276138129,253727.73674205889,47.6134153,17.249795499999998
9953,Orbottyan,3.871515,666247.7100593852,259903.86830459916,47.6827581,19.263848
9954,Telki,3.590953,632930.3285279529,245279.21351836453,47.551193,18.8206574
9955,Heves,4.019698,734218.2194993644,272236.37453205086,47.7884409,20.1714412
10142,Urom,3.864393,647441.8504243606,250536.60351411323,47.5987004,19.0134262
10342,Nagymaros,3.678518,643352.7172779782,271710.50663955504,47.78911420000001,18.9587262
10343,Kiskunlachaza,3.9536629999999997,646835.289247631,205138.3231012552,47.1903391,19.00569
10344,Tat,3.727785,620520.2075775932,266298.56907450757,47.7398038,18.654370800000002
10345,Bataszek,3.805365,625037.4317298114,94357.13722116147,46.1933095,18.7241126
10346,Pilisszanto,3.398461,637910.9279442356,258446.28445167985,47.6697354,18.886467
10542,Maglod,4.0787830000000005,673520.4115548636,233490.62946424802,47.444962200000006,19.359313600000004
10742,Zalaszentgrot,3.8111050000000004,500156.53664760024,179619.8639206317,46.9438023,17.0790205
10743,Nyirbator,4.079832,880859.3014849598,281863.5543253851,47.839511,22.1322309
10744,Balatonfoldvar,3.31471,560908.235539318,167872.8650758837,46.8491197,17.879240300000006
10745,Gyomaendrod,4.135896,785418.1856806568,178381.20628456445,46.9358032,20.8260916
10746,Zahony,3.5996650000000003,881750.8869172074,344985.969481107,48.4063743,22.1778835
10942,Retsag,3.4616480000000003,656736.8557300505,287411.44434766256,47.93032410000001,19.1375901
10943,Tahitotfalu,3.752509,652762.77123959,267824.39159737015,47.75419160000001,19.084289
10944,Leanyfalu,3.5689050000000004,653106.1947563515,263899.368211427,47.718888,19.0888422
10945,Kondoros,3.7160870000000004,783492.3892013791,158786.57922788503,46.7599676,20.7950557
10946,Szecseny,3.7545010000000003,685321.3033737749,304313.4623451689,48.0814012,19.5214674
10947,Encs,3.7924620000000004,803844.5801094512,333956.8681317753,48.3305743,21.1222112
10948,Pilisborosjeno,3.5280160000000005,645816.8686756341,251452.6243290897,47.606931,18.9918085
10949,Kunszentmiklos,3.930185,655779.4822943088,186839.04164823555,47.0257098,19.1234855
11142,Szodliget,3.661907,657492.1025093105,265135.76941342634,47.7299732,19.1473194
11143,Dunavarsany,3.8739019999999997,651411.2998525568,214989.7831692887,47.27896320000001,19.0661045
11144,Bacsalmas,3.82588,671985.2497114927,87019.64395547658,46.1274127,19.3319128
11145,Nagytarcsa,3.5872620000000004,667770.9320227493,242561.72944980464,47.52673529999999,19.2834412
11146,Budajeno,3.273464,631663.3909209654,245781.11789919663,47.555673,18.803804100000004
11147,Sumeg,3.791691,515628.7146442289,183100.7288547717,46.9784329,17.2811657
11342,Jaszarokszallas,3.892429,719964.211034765,256048.58668809262,47.64454170000001,19.9786517
11343,Gyonk,3.3151300000000004,606357.0213131182,134710.0690057918,46.5553541,18.4783275
11344,Tihany,3.13258,561966.5676641495,174873.29853015504,46.9122292,17.8917574
11345,Kunszentmarton,3.922881,744843.0672517059,166935.03253311143,46.8399054,20.2908813
11346,Harta,3.515211,648489.5519479408,150042.88255698467,46.6947199,19.0277119
11347,Balatonszemes,3.248709,553185.7866822681,163204.16167640025,46.806042,17.7789908
11348,Kerepes,4.003762,668020.0865895306,246440.15209467354,47.5616135,19.286907100000004
11542,Fuzesabony,3.891035,752488.3596721138,268090.23572461266,47.7485389,20.4142673
11543,Berettyoujfalu,4.1809,838393.8359801151,211956.70910135066,47.2247273,21.5355206
11544,Kisber,3.7227980000000014,573347.8993590563,239980.4017434845,47.4992603,18.0300173
11545,Csopak,3.216957,564889.4549884659,181636.27612885874,46.9734439,17.928852
11742,Szeghalom,3.9597569999999997,811291.8680866894,188539.05392017,47.0213485,21.1693932
11743,Cegledbercel,3.644143,697803.7803532782,208075.10123743638,47.2150336,19.678569
11744,Totkomlos,3.7619279999999997,779864.8162846578,119962.68003106154,46.4115096,20.7366044
11942,Racalmas,3.652053,641780.8290972682,186863.42540316057,47.0259018,18.9393279
12342,Domsod,3.7551120000000004,646932.4363692314,194514.30927991652,47.094771,19.0070461
12343,Csobanka,3.500374,643971.9559442913,255541.20592900715,47.6436909,18.9672147
12542,Janoshalma,3.951192,671275.5532126477,105894.21100584898,46.2972264,19.3235909
12543,Gomba,3.4730489999999996,686531.2045937915,225264.46168340655,47.3703744,19.5311516
12544,Tapioszecso,3.802979,692167.0631342313,234221.49583611154,47.4506036,19.6066197
12545,Csurgo,3.714833,499491.7853590741,104073.08645615203,46.2642514,17.095087399999993
12546,Boly,3.601625,608813.5900134221,69541.44701676656,45.9692795,18.5161494
12547,Tordas,3.32695,627730.4067666805,222330.40702978894,47.34461500000001,18.7527252
12548,Vasarosnameny,3.938019,893020.270306837,314325.2686990404,48.1267635,22.312647
12549,Kecel,3.9388699999999996,665796.5429412504,131059.86147023368,46.5237655,19.2533387
12550,Labatlan,3.698275,609064.8602754909,266954.750150631,47.74508529999999,18.5015732
12742,Erdokertes,3.890533,669594.2135577515,258522.78112548176,47.67024470000001,19.308359
12743,Visegrad,3.270213,644240.2606582675,271240.0173032185,47.784891200000004,18.970577600000002
12744,Jaszapati,3.9516769999999997,732365.4695597001,241624.48529153777,47.5133704,20.1410061
12942,Szentlorinc,3.8355639999999998,568054.8654023102,77992.10975561653,46.0415605,17.988914
12943,Galgaheviz,3.397071,688213.7662789144,253278.9207685245,47.62225770000001,19.5558378
13142,Lajosmizse,4.044265,688824.1973963166,187027.0805685739,47.026289,19.5582094
13342,Pecsvarad,3.6044419999999997,601585.3726922675,90890.61995633788,46.1608411,18.4206938
13542,Kozarmisleny,3.78597,591066.1972503241,78523.43191479653,46.0487525,18.2860822
13543,Martfu,3.8085480000000014,743806.0452747907,186787.02265410306,47.0186153,20.2813933
13544,Hajdunanas,4.22981,828147.8236827112,280656.31706123846,47.8452241,21.4279002
13742,Villany,3.3934,604030.0149119217,58512.724954456964,45.8697644,18.4555208
13743,Soskut,3.511215,633630.4406097629,228992.8753722796,47.4047185,18.8305621
13744,Balatonfuzfo,3.633368,573546.3266750032,191364.137579659,47.0620043,18.0409677
13745,Mezohegyes,3.6984480000000004,786475.5266560077,109262.7476439849,46.3139611,20.8194076
13746,Toalmas,3.5277589999999996,696421.1336966952,240808.35511795917,47.5095624,19.6637179
13942,Kiskunmajsa,4.070629,703116.5001111313,127589.55731214657,46.4906228,19.739312100000006
13943,Fehergyarmat,3.8954779999999998,908900.4555256407,299241.61080811685,47.9850963,22.5167524
14142,Nagykallo,3.9943169999999997,859122.3298623492,284916.2251195649,47.874296,21.8434965
14143,Kartal,3.769968,686323.0175316158,258343.79862190713,47.66792,19.5311002
14144,Janossomorja,3.7717339999999995,506815.11612069,273104.1576836335,47.7859228,17.136422800000002
14145,Szada,3.66764,669861.5007146002,254754.9628059961,47.6363477,19.3117491
14342,Balmazujvaros,4.239399,822613.7228727656,254506.98982473882,47.6116279,21.3437378
14343,Harkany,3.609061,586957.4063121998,56223.34523911335,45.8477907,18.2359978
14344,Dany,3.6555230000000014,687909.0512288484,242153.50898166196,47.5222089,19.5508325
14346,Sajoszentpeter,4.077913,773458.6962506558,320747.2192968495,48.2183544,20.7087764
14347,Simontornya,3.605089,611500.3249748017,157086.15328279266,46.756962,18.5435129
14542,Bugyi,3.733839,657693.4153048085,208659.5704967961,47.221978,19.149033600000006
14543,Csakvar,3.7177540000000002,605958.418649542,227699.1815675462,47.3918045,18.464064
14544,Zanka,2.9670799999999997,546019.4012610744,170761.4669964036,46.872930600000004,17.6833856
14742,Tapioszentmarton,3.7270529999999997,702688.0479771714,222060.5071445227,47.340459,19.744694
14743,Fertoszentmiklos,3.590061,486805.0688530062,251684.41079896898,47.588634000000006,16.877426800000002
14744,Szigetmonostor,3.3560260000000004,654017.1797310057,260651.39852713293,47.6896702,19.1009549
14745,Szob,3.464638,636918.5673776749,274969.22555036977,47.8183245,18.8727585
14746,Batonyterenye,4.1005080000000005,708230.087127556,294977.00120709045,47.9957901,19.8276504
14747,Bag,3.5891669999999998,682447.0101559665,254520.1608305897,47.6337331,19.4792099
14748,Kunhegyes,3.874076,769592.1903487942,226361.7289123027,47.3703721,20.6310453
14749,Szokolya,3.2574389999999998,647118.6317333535,280344.3966262157,47.8667937,19.0089279
14750,Nyiradony,3.891983,864489.7102779809,264756.92640912044,47.6913589,21.9053502
14752,Csolnok,3.5122839999999997,625239.8189805688,261256.68940139376,47.6946536,18.717583800000003
14753,Mindszent,3.825101,737355.0710501736,131703.0263966504,46.524022,20.186003
14754,Ujszasz,3.803457,727370.6066161337,216104.10182595596,47.28444260000001,20.0702678
14755,Pokaszepetk,2.994757,491693.5257512439,177825.214137607,46.9256917,16.9685234
14756,Farmos,3.5588290000000002,710542.604982609,224490.280371794,47.3616376,19.8489595
14757,Devavanya,3.8820690000000004,795511.0889537431,189243.4604193699,47.0313464,20.9620971
14758,Jaszfenyszaru,3.7498139999999998,700363.8767185198,247474.7651516204,47.5692314,19.7168149
14759,Sukoro,3.11227,615959.9413322788,210974.1130703054,47.2419579,18.59782
14760,Edeleny,4.000824,775153.3298866093,329154.8807114361,48.293613,20.7340134
14761,Zamardi,3.373464,566047.0767762267,171233.30610044813,46.8800183,17.945992800000006
14942,Perbal,3.350054,628366.3750810038,249747.21761741117,47.5912451,18.759802
14943,Gyorujbarat,3.794697,543938.1356745296,253127.17157358758,47.6133844,17.636573300000006
15142,Kistelek,3.846337,721713.424342617,125541.38768876967,46.4704606,19.9812009
15143,Kismaros,3.33264,647393.3903826618,275872.4992254827,47.8265758,19.0126276
15144,Tiszafoldvar,4.046105000000002,741798.202334826,182501.91505562986,46.9803541,20.254116600000003
15145,Almasfuzito,3.3372599999999997,591117.18287519,265033.58935136115,47.7264305,18.262513
15146,Battonya,3.7454650000000003,802146.6703284457,106514.49691256875,46.2858683,21.0218929
15147,Putnok,3.821775,752913.2940002546,328789.80883731926,48.2942607,20.4342869
15342,Diosjeno,3.444669,649720.7669369895,288430.1874866425,47.9395202,19.0437008
15343,Sandorfalva,3.900531,731318.1273419494,114021.41559266168,46.3657365,20.1042174
15344,Mezokovacshaza,3.781684,794249.9701388432,119826.86189910377,46.4073383,20.923600600000004
15542,Tokod,3.624798,620844.8256469845,264447.0777011994,47.7231661,18.6588221
15544,Vasvar,3.6156339999999996,479249.70059622946,191889.70288015256,47.0490649,16.7998821
15545,Inarcs,3.6463059999999996,671296.985887821,213006.17275846237,47.2607788,19.3288579
15546,Hajdudorog,3.948804,833696.0038105261,277545.4344262803,47.8157169,21.500684600000003
15742,Hajos,3.4960989999999996,655363.0363099157,117089.72256857941,46.3982552,19.117199
15942,Petfurdo,3.6736660000000003,579750.5875484083,202178.63120764273,47.1599702,18.1209474
15943,Babolna,3.562768,569702.9726608982,255924.91305041855,47.642224,17.978746700000006
15944,Polgar,3.898451,804594.7142300773,282830.612509268,47.8707939,21.1141032
15945,Buk,3.543199,476803.2935528001,229143.48332461488,47.3833959,16.753304999999994
16143,Morahalom,3.782974,714973.4332060731,97212.8265776662,46.2163238,19.8894811
16144,Felsozsolca,3.829304,784912.6382663918,308894.9437868231,48.1095123,20.8591603
16342,Zsambok,3.372175,692093.1399115527,244507.01061416668,47.54312210000001,19.606613600000006
16343,Komadi,3.713659,835620.8993015059,187020.97784309118,47.0013136,21.488646
16344,Hosszuheteny,3.542327,596339.1728396871,90986.47473235687,46.16130379999999,18.3527689
16346,Veszto,3.8247760000000004,818473.6005627364,177934.38282732182,46.9241978,21.2598799
16348,Fegyvernek,3.807197,761903.2741178384,213121.67668252042,47.2526516,20.525942800000006
16349,Tapiogyorgye,3.5424519999999995,718360.3976029531,221514.52493227262,47.3341052,19.9519935
16350,Lajoskomarom,3.324282,595825.3030061307,166636.69728384182,46.8417783,18.337205
16351,Sarkad,4.000477,828499.6772185862,157995.99986526906,46.74228710000001,21.3836478
16353,Tok,3.131298,626237.507052012,246788.90927146404,47.5645624,18.7316561
16354,Repcelak,3.382737,496692.0450424147,232609.04159529915,47.4195089,17.015428699999998
16355,Dusnok,3.458336,643192.4361360598,116176.0568575699,46.3900215,18.958962
16356,Hevizgyork,3.492062,685442.9131996499,254155.86288778327,47.6303011,19.5190457
16542,Perkata,3.5957169999999996,630447.288005218,189343.54096251816,47.0479725,18.7901236
16543,Bodajk,3.607562,588442.2909775793,220173.74520291464,47.3227042,18.233096
16544,Tiszalok,3.741703,823707.9616856086,299822.2106198421,48.0187144,21.3762342
16545,Ujfeherto,4.11411,847397.6335285555,276342.8557634247,47.8008977,21.6829931
16546,Szikszo,3.7281910000000003,789754.8599239258,319244.2128354043,48.2015243,20.9275021
16547,Abadszalok,3.5935080000000004,766997.8812691278,238056.6122719049,47.4760139,20.5997748
16548,Adony,3.592399,636012.0144654383,197434.71357576628,47.1208993,18.8631074
16549,Sellye,3.4396480000000005,557124.7435159073,59470.16436628412,45.87354439999999,17.8514053
16550,Tapioszele,3.786893,712573.819379282,221229.51601723497,47.3321179,19.875391600000004
16551,Nagyvenyim,3.607562,635655.3304320269,179120.14116671335,46.9561402,18.858991600000003
16552,Koka,3.6465019999999995,690176.4386767157,238494.12577392318,47.4891593,19.580608899999998
16554,Revfulop,3.0261240000000003,541887.1676104204,165874.69264248482,46.828315,17.6303514
16555,Letenye,3.6077769999999996,471380.74395906285,123630.63519863487,46.433204,16.7230843
16556,Felsopakony,3.5369370000000004,664263.7763084751,222155.6362263871,47.3432696,19.2362156
16557,Herceghalom,3.3293980000000003,627203.5355057465,239188.72900956098,47.496236,18.7448861
16743,Hegyeshalom,3.541454,508612.8881572958,287359.6866216729,47.9144882,17.1558011
16744,Mezocsat,3.770189,788959.5283957883,276514.8347656444,47.8175357,20.903168
16745,Ibrany,3.8351830000000002,848217.8387491313,312162.07140900847,48.122594,21.7102156
16746,Zalalovo,3.480151,462236.939954594,169841.06704219908,46.8461983,16.5852286
16747,Szabadszallas,3.770557,663343.4181848542,170123.4321048365,46.8752316,19.2225016
16748,Tass,3.4632959999999997,648838.4724461144,186207.3810462455,47.0200511,19.0321758
16749,Gyuro,3.0982979999999998,626844.3225571063,224893.60888213664,47.3676404,18.7408651
16750,Dunaegyhaza,3.177248,642838.2821790435,165819.9492550218,46.83661160000001,18.9535749
16751,Ajak,3.547529,873429.7258014379,319224.975493985,48.1778501,22.0522301
16752,Izsak,3.771146,673822.2813457224,161894.96664403757,46.800917,19.3595369
16754,Dombrad,3.591065,863736.7694277787,324183.8033136071,48.2256872,21.9244483
16755,Szigliget,2.915927,526784.5720162103,163179.31936758585,46.80143620000001,17.4331745
16756,Nagymanyok,3.3565989999999997,604664.6419225516,104390.12695277896,46.2824922,18.459239
16757,Uri,3.4289440000000004,685950.548868682,230056.30802967557,47.4135085,19.523849399999996
16942,Lorinci,3.7693769999999995,697238.7347501399,266441.2743718446,47.7400504,19.6773099
16943,Korosladany,3.661055,804472.98803277,181738.0678810054,46.9618183,21.0774039
16944,Orkeny,3.696007,679090.9641744713,198473.9077284834,47.1297585,19.4309024
16945,Ersekvadkert,3.5436959999999997,661306.8924004636,294729.1347914304,47.9960713,19.1989343
16946,Kapolnasnyek,3.5575069999999998,621594.322614183,210449.06471319695,47.237503,18.6722759
16947,Balatonszarszo,3.275311,557433.6991690316,165387.95413589006,46.82629179999999,17.8341937
16948,Sutto,3.3044910000000005,604718.3178996413,268354.2948355605,47.7573845,18.44347
16949,Fuzesgyarmat,3.7532,814168.4261612638,197871.3522223003,47.10455820000001,21.210613100000003
17142,Pilisjaszfalu,3.201943,630928.377261521,256737.1868647004,47.6541958,18.7935633
17143,Tapiobicske,3.537693,698289.5328463857,224441.71225844286,47.3622153,19.6867465
17144,Dunavecse,3.595165,644226.0939043656,174684.10010863628,46.9163658,18.971653600000003
17145,Cece,3.3977660000000003,617994.9888051932,158563.1399780848,46.7705943,18.6284199
17146,Szank,3.3747480000000003,698178.1650580055,134128.54763292242,46.54982,19.6756762
17147,Derecske,3.9496830000000003,840609.612039372,226400.3847356677,47.3539466,21.5709171
17148,Csaszartoltes,3.366049,660072.5101560974,119844.09013752892,46.4229794,19.1784944
17149,Tompa,3.657343,687813.8066603186,95714.98548121452,46.2049292,19.537401100000004
17150,Nyekladhaza,3.699057,783081.3451147231,295807.47560349473,47.9922271,20.8305698
17151,Szigetcsep,3.365301,643932.4661427119,213679.3525683462,47.2671482,18.9672674
17152,Dunaszeg,3.3023309999999997,537019.9054552948,270632.9964725411,47.7696461,17.5400735
17153,Nadudvar,3.942901,809303.1626324062,233770.54662189208,47.4285575,21.1593087
17154,Ivancsa,3.462248,633595.2686564999,200379.447197162,47.14733270000001,18.8311498
17155,Szigetszentmarton,3.328176,643196.3390938562,209395.83250819257,47.2286092,18.9576052
17156,Sasd,3.516139,577448.8155889077,101706.78533387763,46.2559563,18.1065598
17157,Kulcs,3.4358440000000003,640036.7108758794,189871.57506857085,47.0529379,18.9163165
17158,Lanycsok,3.396025,617165.24845458,73441.72389987494,46.0048239,18.6236136
17159,Ujkigyos,3.718917,801510.2438426447,140896.75295952722,46.5952164,21.024918300000003
17160,Pocsmegyer,3.3055660000000002,653614.9217787582,263560.52278008434,47.7158378,19.0956199
17161,Gellenhaza,3.187521,477088.99578446243,159824.23346631025,46.7601687,16.783681899999998
17342,Mende,3.6236629999999996,680764.1975677214,231896.46126120357,47.4303237,19.4552503
17343,Nagyigmand,3.469527,577014.3615098638,255028.0928052083,47.6350173,18.076194
17344,Alsozsolca,3.773567,786715.1723904696,304575.53825303743,48.0703015,20.8819968
17542,Bekesszentandras,3.575765,759592.8609910854,170723.3072065924,46.8717052,20.4851283
17742,Tet,3.588496,534713.1300559714,242466.68959427334,47.51595220000001,17.5166682
17743,Sukosd,3.5673790000000003,646028.2917612225,105153.6699136085,46.2908883,18.9959263
17744,Piliscsev,3.373647,632804.7113172996,258870.85803862376,47.673439,18.8184572
17745,Kosd,3.420781,659617.7534718756,273683.36833648046,47.8068226,19.1758423
17942,Mezofalva,3.6699669999999998,629560.923138032,176508.0718688703,46.9324818,18.7790405
18142,Szederkeny,3.262451,603989.282975305,72931.67038932223,45.9994626,18.4535831
18542,Kerekegyhaza,3.79934,683125.6714900755,176941.93448048882,46.9358768,19.4825067
18543,Malyi,3.613947,782511.3460677466,298300.2947853744,48.0147562,20.8236937
18544,Bacsbokod,3.418135,658374.9941330487,86608.97020658106,46.12402470000001,19.1558176
18742,Melykut,3.705949,675599.5993252081,96792.18240877338,46.2151957,19.3792097
18743,Iklad,3.3207690000000003,679740.8507100217,257358.9162088546,47.6593942,19.443391100000003
18942,Karad,3.168203,557537.5231841428,150618.07078716916,46.693453399999996,17.8385506
19142,Polgardi,3.842859,593732.1426707539,190514.99327265532,47.05639779999999,18.3067942
19143,Rakoczifalva,3.729084,740108.8944122941,194646.13001492165,47.0898193,20.2343365
19144,Vacratot,3.271842,664172.6157863636,262864.7668068176,47.7094372,19.236304500000006
19145,Szegvar,3.647383,740007.3249760597,138535.501338891,46.5851274,20.221903
19342,Nagyhalasz,3.7473339999999995,851839.6830137705,313360.14699921245,48.1322422,21.7593891
19343,Jaszdozsa,3.324282,722856.135150439,247384.77349766804,47.566305,20.0157116
19344,Ivad,2.5634810000000003,725595.7384113582,297948.0075151657,48.0207169,20.0608218
19345,Szod,3.523096,660091.9488846712,263938.15384222224,47.7191669,19.1819507
19346,Ujhartyan,3.4440449999999996,675497.5296685064,208491.4486830686,47.2200186,19.3841049
19347,Balkany,3.7934410000000014,860782.6635548627,273381.6495281005,47.770088,21.86013160000001
19542,Balatonfenyves,3.265761,531282.108897514,153774.95893237283,46.7176727,17.4945314
19543,Tarjan,3.4276480000000005,609315.8983109535,251800.93470601522,47.6088065,18.5063222
19544,Abrahamhegy,2.64836,537369.3931725314,164453.82208582002,46.8147826,17.571499600000006
19545,Tiszaalpar,3.6908160000000003,721865.4594773864,164619.22008458734,46.8219617,19.9893055
19546,Medgyesegyhaza,3.5671440000000003,802026.4003876917,130115.07615811606,46.4981379,21.0280887
19547,Csomad,3.198382,664222.3452875472,256806.60760592946,47.6549475,19.2367726
19742,Szajk,2.93044,610251.581391776,71494.63405054163,45.9869356,18.5345339
19743,Beled,3.407051,502437.9177416187,237645.09854292314,47.4661125,17.0898826
19744,Bordany,3.5134839999999996,717326.6543040939,108949.39878706215,46.3216659,19.9216744
19745,Deszk,3.561578,741853.0289450388,97775.75568591923,46.218246,20.2378885
19747,Foldes,3.601843,825217.2179076353,218606.8526800572,47.2881601,21.3642071
19748,Vonyarcvashegy,3.360025,517259.4971337016,159242.6996963875,46.7641925,17.3095703
19749,Ersekcsanad,3.451479,644745.190746404,100827.40918360626,46.2519609,18.9793252
19750,Alsonemedi,3.716504,658940.4884602879,218965.94931554337,47.3146713,19.165704
19751,Oriszentpeter,3.067071,449488.98950137594,169741.2926214908,46.8415658,16.4182244
19752,Dunaszentgyorgy,3.4014010000000003,631927.5378839655,131760.94053368707,46.530011,18.8118978
19753,Devecser,3.635986,527725.852601342,196806.84750507408,47.104052,17.4364185
19755,Hernad,3.614264,677265.6468821836,202391.36248246414,47.1650755,19.4070801
19942,Vitnyed,3.133219,494511.3630901049,251307.10257169974,47.587121,16.979981600000002
19943,Csorvas,3.697317,786844.9096364449,144954.66821283285,46.6348863,20.8347918
19944,Sarisap,3.4326489999999996,622509.6120102252,259012.50893854586,47.6743594,18.6813525
19945,Mad,3.327972,815552.5365368873,318845.85956355743,48.191851799999995,21.2742214
19946,Badacsonytomaj,3.3180629999999995,533015.4270333743,163538.8441107386,46.8057988,17.514692999999998
19947,Lakitelek,3.6485550000000004,722639.799357216,170372.9618628606,46.8736335,20.0003712
19948,Val,3.4015730000000004,621984.0217982912,224910.47532470335,47.3676021,18.6765141
20142,Hajduhadhaz,4.095448,846797.7331217757,263371.8649209731,47.6844833,21.6691853
20342,Kakucs,3.437275,674172.8068715441,210887.08221450483,47.2416179,19.3667431
20343,Tarcal,3.4508650000000003,821057.9168394653,312105.04618183174,48.1298284,21.3455658
20344,Ulles,3.497206,711683.2278019848,110609.27406510839,46.3371407,19.8486229
20542,Nagydorog,3.4179699999999995,619974.2871177659,142210.76805919595,46.62358370000001,18.6554107
20543,Balatonkenese,3.504471,578599.3413760464,188296.5457870784,47.0349778,18.1079681
20544,Halaszi,3.4731949999999996,521522.9195816925,284444.08547942963,47.8909561,17.329325100000002
20545,Decs,3.6073480000000004,627850.5142486634,104464.16308910165,46.2843291,18.7600689
20546,Pellerd,3.3441959999999997,580770.8720286248,77087.90413292452,46.0348577,18.153296
20547,Nagyszenas,3.7050080000000003,774355.6208933921,148753.39203637774,46.6715027,20.672749300000003
20548,Baj,3.457882,598687.6170784547,256347.31504195704,47.6489476,18.3644373
20742,Vaskut,3.534153,645203.6499462185,85220.25813549505,46.111566,18.9854333
20743,Balatonvilagos,3.071514,582411.9113020564,180380.45545528666,46.9641731,18.159314
20744,Akaszto,3.5092019999999997,662153.8780426132,149639.38859969453,46.6909821,19.206353600000003
20942,Bajot,3.192289,613279.4182500815,264788.0249554843,47.7258495,18.5579539
20943,Kenderes,3.6671730000000013,772970.0828097549,212795.89348468743,47.2477469,20.6720305
20944,Kiskore,3.4237370000000005,758865.7791509987,240507.510002425,47.4994568,20.4925043
20945,Zalakaros,3.266232,502390.10608164745,136974.29714753325,46.5607855,17.1221529
20946,Korostarcsa,3.393926,800595.8014752305,172186.501934252,46.8768155,21.0233046
20947,Jaszszentandras,3.3864989999999997,734642.9552113665,249468.78717790075,47.5836296,20.172738100000004
20948,Nyaregyhaza,3.5859120000000004,684447.3513198706,213287.05450383146,47.2627494,19.502638600000004
20949,Pakozd,3.505014,611774.0916391589,208218.41553979027,47.2169395,18.542766600000004
21342,Toszeg,3.6414739999999997,733496.8508559735,195745.6508531871,47.1005785,20.1474605
21343,Per,3.367915,555991.9446683459,252773.80826381233,47.6120536,17.796963100000006
21344,Petofibanya,3.439964,699061.164077874,269355.7395079562,47.7661279,19.7019335
21345,Szalkszentmarton,3.4513260000000003,647400.1267964435,181258.05731062355,46.9755241,19.0132851
21346,Gyermely,3.161368,619649.3568297107,249766.22305265703,47.5910684,18.6439003
21542,Nograd,3.155336,687309.1160354012,293868.68609493604,47.98736160000001,19.5472495
21543,Algyo,3.720242,739385.2175298741,110749.41528694553,46.335276,20.2084058
21544,Egervar,3.002598,482981.7859305451,179161.90783159382,46.9355693,16.8536837
21742,Berekfurdo,3.004321,785173.050068979,228474.9354884416,47.3863531,20.837934
21743,Janoshida,3.3845330000000002,726192.1136253936,227148.57155732138,47.3839188,20.0565734
21744,Ebes,3.642465,834203.2966851951,239242.76269564,47.4712353,21.4914725
21942,Abasar,3.397593,721378.2914858938,272763.00691206113,47.7947098,20.00018
22142,Balatonmariafurdo,2.817565,524592.0118709133,152118.75671550393,46.7015468,17.407499100000006
22342,Mecseknadasd,3.178689,605023.1831991314,97930.1649149291,46.2244052,18.4645171
22542,Vacszentlaszlo,3.3205620000000002,686805.244765067,247851.1987130692,47.5735196,19.5366483
22543,Gesztered,3.213252,854672.3999166976,272544.0953099463,47.7645074,21.7782735
22742,Cibakhaza,3.636187,738191.041829235,180075.9273691015,46.9590236,20.2062362
22743,Gonyu,3.496238,558529.471584021,266198.29270393506,47.7331432,17.827923100000003
22744,Fadd,3.635182,632932.2362490862,124686.21388055518,46.4663938,18.8252567
22745,Zsombo,3.550473,721191.1756547084,109895.89810187873,46.3297803,19.9719943
22746,Zebegeny,3.069298,639629.058456874,272950.92122934724,47.8002213,18.9090008
22747,Emod,3.689753,782181.4139820343,289304.91701391083,47.9339466,20.8165452
22946,Bank,2.8208580000000003,659427.9603136235,286921.9316365473,47.9258885,19.1735916
22947,Szajol,3.572174,744989.5049582551,204275.83059501325,47.1757484,20.3006435
22948,Teglas,3.821972,847089.9447748711,266853.14031257655,47.7156887,21.6746328
22949,Lebeny,3.49955,525739.5676728054,267063.5544083528,47.73549420000001,17.3906258
22950,Magyarszek,3.03543,584285.5640877235,94895.68151674858,46.1953947,18.1961806
22951,Herend,3.5236160000000005,551753.9097811056,199561.28856950867,47.1328461,17.752335600000006
22952,Matranovak,3.226858,719648.6849051261,299883.34531729255,48.03878579999999,19.9814173
23151,Kornye,3.649432,596136.2872947886,245099.7063708736,47.5475792,18.3318516
23351,Csepreg,3.5294300000000005,473432.6213206601,231267.47761279283,47.401594,16.7078418
23352,Many,3.380754,620542.4478741293,242962.45885980275,47.5299128,18.656228600000002
23353,Elek,3.682687,819157.5293868786,134052.98720713763,46.5294265,21.2526107
23354,Asotthalom,3.600537,706579.0236027811,94770.7174361303,46.1951162,19.7804054
23355,Dunapataj,3.500922,646290.7703264053,144436.41961324122,46.6442755,18.9990105
23356,Hajdusamson,4.117437000000002,853469.3363989379,254084.22032902692,47.5989514,21.7537139
23357,Nemesnadudvar,3.2557549999999997,650361.3995646394,110523.56083965169,46.3392074,19.0521601
23551,Kunmadaras,3.723866000000001,781850.0673854628,233083.47932622148,47.4284725,20.795297100000006
23552,Jaszfelsoszentgyorgy,3.295347,706136.8076855447,240787.58747284248,47.50861550000001,19.7926903
23554,Magocs,3.3780339999999995,586967.3884513363,112035.67234683894,46.349833,18.2285903
23751,Kapolcs,2.597695,540514.0574430692,180085.22541706671,46.9559035,17.6089272
23752,Vamospercs,3.7212330000000002,864659.302475312,246447.4533470602,47.52672929999999,21.8987164
23753,Pusztazamor,3.083144,630230.8672724525,228756.21372853775,47.4024957,18.7855309
23754,Acs,3.842921,572572.991970755,263469.4615205442,47.7104229,18.015613300000002
23951,Kemence,2.993436,638370.3977199857,297072.0946083411,48.0171336,18.891553
23952,Egerag,2.986772,592450.3491476913,71031.23585721974,45.981479,18.3048844
24151,Mogyorosbanya,2.9523080000000004,616615.197234904,264950.55161823786,47.727491,18.6024067
24551,Berhida,3.775756,580589.8147706093,196959.16727074684,47.11311060000001,18.1328211
24552,Domaszek,3.696706,723405.3866210975,100617.84116797165,46.2460831,19.9992805
24553,Baracs,3.542078,636218.0477160529,174429.03293275504,46.9139521,18.8665281
24554,Tiszaszentimre,3.319314,776274.8096064,239958.74193270516,47.4913975,20.7233655
24751,Apostag,3.289589,643893.8382246566,171002.62662136392,46.8832449,18.9673417
24752,Zomba,3.311118,612821.9771846525,118706.94643599672,46.4117861,18.5639262765116
24753,Janoshaza,3.3803919999999996,507116.4519135881,199027.40627166815,47.1198765,17.1642699
24951,Letavertes,3.850646,863549.2551365783,230674.65946865338,47.3853112,21.8764089
24952,Pilismarot,3.326336,637057.8790964787,271248.0039524675,47.7848591,18.8747292
25151,Kotaj,3.6562900000000003,848475.5414433524,303858.6336009585,48.0478876,21.709878
25152,Szabadbattyan,3.655619,598423.6833812725,197291.87308367708,47.1177414,18.3677694
25351,Gyongyostarjan,3.390935,711368.6928207655,274542.8044575789,47.81173560000001,19.8668338
25352,Gyorzamoly,3.4117879999999996,539864.2430049102,267330.0059870047,47.7404316,17.578841699999998
25353,Kunsziget,3.09899,535090.4775435061,267306.78785779636,47.7393981,17.5152083
25354,Iregszemcse,3.409764,583926.4297323634,150218.46270353583,46.6930094,18.183599
25551,Nyirtelek,3.8314220000000003,842765.7007102466,299481.30065793055,48.0102668,21.6314008
25552,Leanyvar,3.2365369999999998,629246.2332979689,259800.30489329947,47.6816948,18.7710262
25553,Nagykozar,3.284882,593687.1625880465,80369.49954461215,46.065583200000006,18.3197191
25554,Somberek,3.144263,620023.5905664355,81878.59178078052,46.08085139999999,18.6599695
25751,Tiszavarkony,3.183555,735808.189906838,192110.74662072584,47.0675873,20.1772149
25752,Roszke,3.5018800000000003,726281.0316843346,94112.14010226072,46.18724270000001,20.0354983
25951,Seregelyes,3.6589650000000002,614414.369159749,196493.34406285378,47.111616999999995,18.578554999999998
25952,Romhany,3.342225,665815.0517153682,286448.36689858645,47.9215061,19.2590383
26151,Bukkabrany,3.192567,772342.4857167557,283955.0023898323,47.8877699,20.6834042
26152,Szilvasvarad,3.220108,749777.971446627,307500.23517585424,48.1033386,20.3871297
26351,Rajka,3.408749,511841.0328035514,296467.3291430338,47.997068,17.1960871
26352,Biharkeresztes,3.589726,852648.787127641,202040.2853012276,47.1313432,21.7191678
26551,Abda,3.505286,536933.7507236111,262631.89230463165,47.6976818,17.5409829
26751,Palhaza,3.0,832176.4831962821,350468.687678799,48.471582399999996,21.5110813
26951,Vachartyan,3.260071,665475.4495888217,264821.36069147143,47.72700560000001,19.2537343
26952,Mosonszentmiklos,3.3583160000000003,528460.4186746425,266249.4092981131,47.7286866,17.4271186
26953,Dunakiliti,3.268812,518640.64928664145,292869.36807894247,47.9661325,17.288256699999998
27151,Kony,3.417139,523205.75341523957,255564.30057907334,47.6316029,17.3601631
27351,Mandok,3.622007,883033.546493037,335662.31611093023,48.32214620000001,22.1901309
27551,Martely,3.133219,741467.1535484518,125622.06548000828,46.468773,20.238383
27552,Jakabszallas,3.420121,692127.810904489,157597.76942094992,46.7613525,19.5989418
27553,Tuzser,3.518646,877643.9668193248,337815.1127321981,48.3434133,22.118663
27554,Tapiosag,3.417472,693997.2217278708,228524.8484524053,47.39924370000001,19.6303259
27555,Beloiannisz,3.0413930000000002,633170.5438592037,204249.4527759431,47.182134399999995,18.825404100000004
27751,Ganna,2.385606,534938.5987189851,210812.3832995898,47.2313133,17.527836699999998
27951,Kunfeherto,3.3040599999999998,678152.2807833141,113166.79757947758,46.362396,19.4132799
27952,Demecser,3.631444,864251.4002586433,311740.69430864794,48.1136996,21.9252073
27953,Hereg,2.997386,609745.8809082941,255981.32886001235,47.6464326,18.5116592
27954,Gyorujfalu,3.1972810000000003,542024.4421366593,265150.58704753977,47.72119470000001,17.608175600000006
28151,Som,2.832509,580720.6144816697,162997.82106744015,46.8076371,18.1397468
28152,Baktaloranthaza,3.6336699999999995,876215.1931595472,299476.2169152646,47.99942070000001,22.0793592
28153,Ketegyhaza,3.602819,813971.5747125761,135701.26582623582,46.5455442,21.1856277
28154,Csabrendek,3.47261,516354.35887037835,186948.00752549322,47.0131804,17.2895632
28155,Petervasara,3.3916410000000003,728413.7989254079,297795.8129742296,48.0190139,20.0985669
28351,Szomod,3.3209769999999996,597062.1136640462,260091.44647159026,47.6824922,18.3423516
28352,Sarretudvari,3.4394910000000003,812159.333206794,212793.3864369929,47.2392356,21.189538100000004
28353,Level,3.2496869999999998,511852.4077859324,284901.80853858107,47.8930868,17.1999042
28354,Hidas,3.304706,607518.1870575967,101691.98281409053,46.2584081,18.4965098
28551,Madocsa,3.2743889999999998,643057.1089619086,149307.6547674199,46.6880707,18.9566974
28552,Nagycenk,3.2915910000000004,473345.3664622351,253717.6539738386,47.6034133,16.697743300000006
28553,Lovasbereny,3.4263489999999996,613358.0183570271,217796.99505342406,47.3031905,18.5628926
28554,Biharnagybajom,3.436322,815192.7228894543,209892.55100910185,47.2123973,21.2285194
28555,Rackeresztur,3.5199589999999996,633948.2883129291,214329.85189927125,47.272830600000006,18.835303
28751,Bata,3.2284,628933.7672325548,87146.07982082522,46.1285751,18.7749107
28752,Turje,3.2174840000000002,502214.0885748452,184059.59018063708,46.9841918,17.104588500000002
28753,Peteri,3.3426199999999997,677431.3449017981,227182.0870104122,47.3880659,19.4107817
28951,Forraskut,3.3684730000000003,716319.7203988848,113870.28735989178,46.3660316,19.9093047
28952,Vaszar,3.160168,534421.2722350582,229846.90327231353,47.4024091,17.5160785
28953,Hegyko,3.1476759999999997,480644.9274964677,255536.90822800127,47.62170310000001,16.7940826
29151,Gavavencsello,3.525304,839386.9633665159,316142.28966378636,48.161011,21.5934119
29551,Arnot,3.4055169999999997,784855.6348572327,311605.73353570764,48.1338948,20.8592384
29552,Taborfalva,3.519303,683050.9390795559,195669.89776812546,47.104349,19.4828926
29553,Dag,2.972203,625409.9765639814,257642.75876521543,47.66215560000001,18.7200529
29554,Kelebia,3.412124,693102.200396998,94912.55240907689,46.1973923,19.6058436
29555,Sirok,3.266232,735809.4082478513,288097.1582562214,47.9308649,20.1957821
29556,Bakonyszombathely,3.1525939999999997,567993.1032043434,237505.58530188294,47.4763525,17.9594079
29557,Kakasd,3.204933,614991.8564515541,111411.00582004928,46.3462709,18.5927004
29558,Fertorakos,3.331225,470347.2889004606,266355.4961445642,47.716211,16.6527401
29559,Alsomocsolad,2.5171959999999998,588188.9651517335,107936.8425012674,46.3130764,18.245006399999998
29560,Vertesszolos,3.500511,599930.9904359588,253185.44087422258,47.6206061,18.3813459
29951,Balastya,3.534407,724304.5260161706,120047.52257743722,46.42075850000001,20.0140509
29952,Nova,2.913284,468762.6588325221,151733.3775175983,46.6851951,16.677948699999998
29953,Poroszlo,3.4337699999999995,770857.252650399,256765.07697207553,47.6435536,20.6560717
29954,Tevel,3.163758,604491.191957424,118841.49903502113,46.41248,18.4555663
29955,Szendehely,3.1625650000000003,654305.6079051459,279077.13930971187,47.8553893,19.1049747
29956,Pincehely,3.35526,603514.8781838368,148812.6177189265,46.6820239,18.4398335
29957,Kaba,3.7732010000000002,818196.7959062564,226128.50917664857,47.3576246,21.2742641
29958,Fenyeslitke,3.371068,876507.8159841041,329701.7657933724,48.2709162,22.0990803
30151,Ocsod,3.505014,752263.0221297919,173876.05346658832,46.9012341,20.3897025
30152,Gyongyospata,3.393049,705636.6708678795,274813.1659919154,47.8146817,19.7903391
30153,Mezokeresztes,3.5801260000000004,773139.1125869162,277533.90065504605,47.829883,20.6922479
30154,Gorcsony,3.2208919999999996,579302.8271098746,69850.5978226784,45.9696057,18.1354282
30155,Besnyo,3.2501759999999997,630757.2453681302,205304.5196769153,47.1915588,18.7935179
30351,Mezoszilas,3.315551,606313.8118518715,163666.62320183523,46.81583610000001,18.4749938
30352,Eloszallas,3.33965,632793.9725013673,165284.63672343775,46.8316103,18.8219252
30353,Nagyoroszi,3.319522,653273.3982652099,295587.7181138085,48.0038821,19.0913026
30354,Csor,3.262925,590112.621180396,207070.04617574342,47.204993,18.2569467
30355,Hogyesz,3.458789,601746.2964697857,128113.8614280426,46.4956982,18.4188957
30356,Kunagota,3.4080699999999995,803842.3231667943,121849.52486779302,46.4233892,21.0489809
30551,Beremend,3.4139699999999995,602327.7767542135,49069.828905927134,45.7847076,18.4345572
30552,Pitvaros,3.1274290000000002,780046.5532753651,109936.60226737426,46.32130120000001,20.7361518
30553,Apatfalva,3.468495,767924.1431958005,93625.62466907826,46.1768429,20.5746455
30554,Hortobagy,3.172311,808331.4861581086,250877.92550973722,47.5826139,21.1525371
30555,Kecsked,3.2893660000000002,594286.303241279,242497.39591188764,47.524018100000006,18.3076032
31151,Nyul,3.6304279999999998,547844.32402967,250449.01685348173,47.5899223,17.6891435
31152,Balatonakali,2.7972669999999997,551257.4062188705,171801.2722807603,46.8830854,17.7518613
31153,Vertessomlo,3.125807,598606.2730975125,241029.41260527176,47.5111685,18.365137
31353,Aba,3.6645480000000004,610034.8832764615,187361.16575940303,47.0292178,18.5216608
31551,Besenyszog,3.527888,741486.2419294015,217590.5906272674,47.2960008,20.257149
31552,Sojtor,3.177825,482153.0992264497,149661.4146302322,46.6700808,16.8536814
31553,Gyenesdias,3.5705430000000002,515480.67056226253,160208.15190273122,46.7725171,17.286004100000003
31554,Ostoros,3.426511,753348.5839372053,281278.299434428,47.8669963,20.4288434
31555,Pusztavam,3.382557,588179.6462551819,232032.75651431497,47.4293464,18.227975
31751,Tiszapuspoki,3.302114,746181.7250202523,208607.3388989297,47.2145342,20.3172973
31752,Somogyvamos,2.9020029999999997,545389.004414672,136976.61724591878,46.568951299999995,17.6828598
31951,Szentkiraly,3.2878019999999997,716414.2857975813,175594.62976881725,46.9212567,19.9194732
32151,Apc,3.406881,698261.4538476635,272709.44095195807,47.796349600000006,19.6916338
32551,Karancsbereny,2.959518,701892.3975470933,315817.084554495,48.1837308,19.7452275
32552,Balatonbereny,3.062958,517872.8882004273,153296.4622335285,46.710836,17.3193203
32553,Foldeak,3.480725,761388.0104175425,109347.25158464584,46.3193648,20.493784100000006
32554,Nagybaracska,3.338656,639008.3259704564,77600.960236087,46.0429521,18.9054826
32954,Markaz,3.242541,725421.3588363607,276367.59455959045,47.8266709,20.0547595
32955,Hort,3.5595480000000004,705188.1800004509,260898.3793432914,47.689575,19.7826055
32956,Bajna,3.2778379999999996,616285.0287514691,256929.77514809155,47.6553343,18.598620800000006
32957,Kophaza,3.321391,469362.9386392678,257731.08686141856,47.63840560000001,16.6431637
32958,Kunbaja,3.171726,679129.5879605508,82701.72868354115,46.0882993,19.4240758
33154,Borsodnadasd,3.478133,739183.2314270169,309466.8699407107,48.1225672,20.2453048
33156,Szirmabesenyo,3.63789,780097.0014918599,313740.86301836127,48.15406420000001,20.7959687
33354,Tengelic,3.352954,624175.906467597,132004.64838625694,46.5319473,18.7108467
33554,Jaszszentlaszlo,3.3905819999999998,704650.8982798649,136198.80138882835,46.5679444,19.7603182
33754,Alcsutdoboz,3.160168,616473.0101819142,231376.97894181922,47.4255086,18.6030614
33756,Mocsa,3.323871,584968.2970022429,258740.93060503187,47.6692513,18.181483
33757,Villanykovesd,2.4424799999999998,601689.2058560546,59733.64252029493,45.8805828,18.425254199999998
33956,Keszu,3.108565,583690.8806218153,75074.95055831796,46.0170456,18.1912934
33957,Bacsborsod,3.077731,658578.6342157382,83649.78018597218,46.09740220000001,19.1583982
33958,Erdokurt,2.736397,681274.5755870951,269876.6637936676,47.771907899999995,19.4646973
34156,Szentmartonkata,3.69443,698584.6839270622,233546.48301107134,47.4440884,19.6916458
34157,Ujlengyel,3.2380459999999998,680052.0670238526,209877.40373539296,47.2322939,19.444332
34158,Valko,3.402089,684808.2587316509,246799.87701229888,47.5641727,19.5100231
34357,Galgagyork,3.019532,674585.7512801266,266373.548931959,47.7406871,19.3752627
34359,Cered,3.025306,718440.7818817141,311628.1270905705,48.1445255,19.967072299999998
34360,Kesztolc,3.426186,631245.5623226821,263282.8705158382,47.7130784,18.7975059
34361,Magyarbanhegyes,3.3754809999999997,797246.9808933388,125228.48109960335,46.4552631,20.9642866
34362,Pusztafoldvar,3.230449,784902.1137884917,133425.7060731766,46.5315946,20.8060399
34363,Borcs,3.11059,533884.0565010526,261285.23395859532,47.6850359,17.5007155
34364,Bekecs,3.3785800000000004,808012.6200010863,314157.2118904998,48.1515919,21.1711437
34556,Bagyogszovat,3.108565,523644.9102081915,250204.95688492083,47.5834947,17.367538699999994
34557,Csakanydoroszlo,3.2380459999999998,456559.52358854725,184375.56007417472,46.9752457,16.5046293
34558,Egerszalok,3.2755419999999997,745487.1336314215,281504.70727035584,47.87023350000001,20.3238326
34559,Bokony,3.500785,852862.3169400096,268893.46180422226,47.7322591,21.7524577
34560,Csavoly,3.2567180000000002,657459.8142543333,94429.2885981845,46.194385,19.1441018
34561,Biharugra,2.923762,843828.8945594941,183679.3117535904,46.9689132,21.595087399999997
34756,Miske,3.21906,648817.1316004948,121990.80619765777,46.4423649,19.0320713
34757,Pazmandfalu,2.9881130000000002,554940.9481937486,248074.87393510347,47.569642200000004,17.7839964
34758,Kisgyalan,2.287802,567751.4298039023,120494.72937914732,46.4238338,17.9774717
34956,Harka,3.283075,466279.7121624282,257362.73872904258,47.6342337,16.602306
34957,Derekegyhaz,3.202761,750286.6596704444,138367.12928904942,46.58214520000001,20.3559703
35156,Egyek,3.689753,788321.793513671,255805.91846050115,47.6314647,20.8881462
35356,Nemesvamos,3.4007110000000003,560687.0932830683,190749.95603160132,47.0548638,17.8718258
35357,Majs,2.972666,615298.0756692276,62770.00244409943,45.9087344,18.600301
35358,Vemend,3.164947,616766.0483989904,90351.3877890054,46.1569155,18.6172563
35556,Csenger,3.674861,921802.466210476,283273.29309637914,47.8363678,22.6794652
35557,Csakbereny,3.072618,595687.8027570099,223010.7022325133,47.3488619,18.3285962
35558,Ecsed,3.504199,704358.4345284816,265680.70777584944,47.7326559,19.772143
35756,Lengyeltoti,3.508799,542384.7684620922,147942.7073512443,46.6671072,17.641103899999994
35956,Kaptalanfa,2.917506,520629.86564591265,192713.60966897136,47.0658851,17.344129199999998
35957,Tiszacsege,3.651375,796061.6019327672,263342.7482359731,47.69754810000001,20.9935969
36156,Gorbehaza,3.3805730000000005,814019.0466340766,277307.25402413245,47.8188298,21.2379579
36157,Csany,3.3432120000000003,708803.7686751831,256239.76242705507,47.6473605,19.830145
36158,Nyiracsad,3.5755339999999998,869882.2768257039,255028.26363092748,47.6021228,21.9722891
36356,Tiszaroff,3.181844,754982.8460823811,229155.39728597488,47.3979955,20.438295
36556,Belapatfalva,3.476542,746997.0312608136,301852.40691639285,48.052978,20.348536300000006
36557,Alsoors,3.168498,568580.6537668767,183232.4146509138,46.98826629999999,17.9770715
36558,Felsoszentmarton,2.944976,545752.0789804236,57290.16477195782,45.8522747,17.705455
36559,Szabadegyhaza,3.3360589999999997,623042.8966165346,192573.1945953896,47.0767634,18.6924831
36756,Jaszkarajeno,3.425208,727558.7549281009,190462.38997429988,47.0537807,20.0683316
36757,Otteveny,3.4676080000000002,533057.890048426,265746.4727947654,47.7250055,17.4885276
36758,Jaszboldoghaza,3.2000290000000002,721718.471736137,225471.25338445953,47.36933610000001,19.9970587
36759,Ikreny,3.2567180000000002,535537.6030058617,257672.26153268223,47.6528383,17.5236747
36760,Nagyharsany,3.1959,599684.3762920209,56062.935917123716,45.847418,18.3998265
36761,Abaujszanto,3.4896769999999995,808694.03857253,328317.05542221514,48.278706,21.1855002
36956,Hercegszanto,3.273927,641343.5835242642,67330.91673266684,45.950602,18.93584
37156,Nagyecsed,3.7811809999999997,899809.5364579381,285220.09964111773,47.8626738,22.3870647
37157,Sarszentmihaly,3.4860050000000005,595314.789272187,201393.23308860735,47.1543829,18.3263027
37158,Kallosemjen,3.5550940000000004,866289.3139794695,283454.3571674341,47.858813700000006,21.93851350000001
37356,Darany,2.956649,536974.7133010427,71806.60992556757,45.9814198,17.5889964
37357,Csengod,3.3053510000000004,667282.6089197441,152054.87864647893,46.71259860000001,19.273494600000006
37556,Balatonszabadi,3.470704,580358.1703059378,172306.29500317125,46.8913312,18.133571
37756,Gyarmat,3.0806259999999996,532496.385611743,236671.3863565177,47.4634405,17.488777300000002
37757,Tapioszolos,3.464489,709478.8269096004,217163.42958787657,47.2958317,19.8339025
37956,Onga,3.6789730000000014,788886.8415258803,310234.58904181106,48.1207157,20.9129384
38156,Nagylengyel,2.70757,475598.3233819207,161915.22889171971,46.778581,16.7633768
38157,Ketsoprony,3.154728,790390.1605359808,154408.97885568612,46.7191754,20.883979
38158,Geresdlak,2.887054,609758.1038272071,84990.84065073241,46.1083102,18.527004
38159,Orgovany,3.512551,682551.2061497164,156529.19534337212,46.7522776,19.473504
38160,Balatongyorok,3.046495,520377.9108025628,158887.78962419985,46.7616172,17.3504857
38161,Dubicsany,2.454845,757147.7470614361,327771.94363104494,48.2844206,20.4910842
38356,Bakonyszentlaszlo,3.231215,556154.6757935019,228163.79436776644,47.3907437,17.804337399999994
38357,Karancslapujto,3.414137,701242.8301778277,312359.19717251614,48.1526888,19.736084100000006
38358,Farad,3.2846559999999996,511250.96231625375,253018.10533965152,47.606276,17.201935100000004
38359,Danszentmiklos,3.476542,688533.8112571554,207195.74015489663,47.20773060000001,19.5561129
38360,Felsonana,2.761176,610159.1017006433,124891.83736004209,46.4672701,18.528759
38361,Hollohaza,2.91698,824662.2839180354,358034.67285370117,48.54166,21.412621899999998
38362,Marko,3.082426,556442.0940716907,198182.96914495016,47.1211315,17.814413300000005
38556,Nyirmada,3.6777889999999998,883988.9190909193,307406.80503538926,48.067926,22.1877049
38557,Bocs,3.439964,793481.4784214081,301206.02072604786,48.0385461,20.9716444
38756,Gyorladamer,3.2103189999999997,538736.1553144199,268807.16221799946,47.7535231,17.5634287
38758,Somogyvar,3.271609,543073.9366706776,138232.72841967683,46.5798816,17.6523745
38956,Nyirlugos,3.431525,874720.0599110483,265216.80966599757,47.6920499,22.0417654
38960,Okany,3.406029,825380.1218737521,175165.9067092653,46.89751029999999,21.3494563
38961,Bakonycsernye,3.4909410000000003,577243.9823607574,219942.66689923443,47.3194796,18.085004
39156,Davod,3.2846559999999996,640335.3838676693,72427.083864745,45.99643070000001,18.9227327
39157,Felsopeteny,2.79796,661260.7555510873,282833.48192250234,47.88909,19.198011
39158,Szigetujfalu,3.300378,640617.6613895977,209910.66375779765,47.2332083,18.9235417
39159,Szentgal,3.427486,550409.1958486354,197330.69891255337,47.1125816,17.7351064
39160,Gerjen,3.0788189999999998,638927.9366596801,127697.58486734508,46.493611,18.9032424
39161,Felsotarkany,3.5260809999999996,752060.8743748362,292934.9316884959,47.9720171,20.4143577
39162,Doboz,3.6198230000000002,817656.5202408214,156805.0512895347,46.7344029,21.2413729
39356,Regoly,3.042969,599642.1498955421,137354.9465110561,46.5786721,18.3904744
39357,Notincs,3.031409,656959.0994518658,282056.24839472934,47.8821597,19.1404797
39358,Sarud,3.0515380000000003,766521.7685175936,250550.88470252388,47.5884589,20.5967429
39556,Katymar,3.3138669999999997,662573.7189934683,76667.37952718105,46.0345287,19.2098709
39557,Kolcse,3.099335,923400.1189637311,307258.91287272784,48.0511713,22.7158081
39756,Vaja,3.5496160000000003,883088.9317034212,299707.55931757425,47.9990668,22.1715133
39958,Csanadpalota,3.472464,779248.5647003057,101329.88878739727,46.2440484,20.723398
39959,Helvecia,3.6526330000000002,693772.4744441955,166062.61936069583,46.8373932,19.6212831
39960,Boldva,3.367542,779378.9512366053,320745.51647024037,48.217181,20.7884169
40156,Liter,3.310481,571067.9470117326,195611.32642037753,47.099915,18.0076
40157,Ferencszallas,2.788875,750724.8629625981,97760.84714683893,46.2168385,20.3528445
40356,Nagyvazsony,3.2511509999999997,547382.7055832046,183033.66541321392,46.9835252,17.698486399999997
40556,Csemo,3.6317480000000004,699339.9561947052,197342.4053533208,47.1183779,19.697672
40756,Recsk,3.424228,729418.862571836,288543.31436455756,47.9356893,20.1103528
40757,Bak,3.2214139999999998,481723.24944759376,156406.49262139952,46.7306266,16.845582399999998
40758,Gyorszemere,3.5063699999999995,538223.8445171703,246499.3224717387,47.5528273,17.562254
40759,Tatarszentgyorgy,3.295347,674454.1812289907,193181.1618228111,47.0823354,19.3694988
40760,Bakonybank,2.627366,563805.1856268372,236513.83576896015,47.4668946,17.9040445
40956,Szakszend,3.1702619999999997,583912.897259353,245520.2326477733,47.5502393,18.1694103
41156,Pusztaszentlaszlo,2.777427,481071.8656565768,145708.0616030209,46.6342567,16.8410158
41157,Kal,3.544192,740890.3039968675,266268.61991960136,47.7338768,20.2592411
41356,Galgamacsa,3.2915910000000004,675323.8796168906,261158.3547905062,47.693753,19.3848053
41357,Kaposmero,3.3793059999999997,546729.9933380418,113862.67546144742,46.3612591,17.7055288
41556,Rakamaz,3.6575339999999996,830902.7109050674,311551.8920081863,48.12218,21.4775144
41557,Doge,3.322839,874287.7648326269,328266.8020736733,48.2587979,22.068454
41756,Madaras,3.4659769999999996,666437.8162058126,79189.14530608353,46.0571305,19.2598668
41757,Szirak,3.048053,686137.6454846452,276202.7188413607,47.8285516,19.5300976
41956,Cserkeszolo,3.320146,737492.5157665489,169890.763820967,46.8675023,20.195096
41957,Himeshaza,3.032619,613054.4711481731,82482.42971434505,46.0859355,18.5698349
41958,Szabadkigyos,3.4307199999999995,805408.0015735892,141662.7945284921,46.6012074,21.0760273
42156,Jobbagyi,3.3439989999999997,697118.6052766838,276480.9050838339,47.8303521,19.6767845
42356,Teskand,3.051924,477066.03205565305,170328.9807531755,46.854622799999994,16.779390399999997
42357,Lovo,3.159266,479410.4959795311,242420.6828912277,47.5034563,16.7827241
42358,Levelek,3.4640419999999996,869455.043336717,295437.1014560336,47.9654436,21.9868073
42359,Felcsut,3.2626880000000003,615222.8984210623,234611.2508305602,47.4545349,18.5862386
42556,Gutorfolde,3.009026,473093.141368562,146721.55249205258,46.6412956,16.7364699
42756,Alsopahok,3.111598,506891.0747872711,159162.57709658396,46.7613162,17.1738982
42757,Csikeria,2.948902,682779.2639960657,86933.23232463526,46.1261963,19.471556500000002
42758,Pocspetri,3.2337569999999998,870310.6185316121,286103.6207696266,47.8812739,21.993548
42956,Pap,3.254306,879972.9574691495,323673.9929052493,48.21553170000001,22.14250280000001
42957,Mehkerek,3.3081370000000003,833393.890937438,161765.62186881862,46.77484929999999,21.4491781
42958,Bohonye,3.371622,522278.3094653712,119432.46025559657,46.40712720000001,17.386339800000002
43156,Boconad,3.096215,735644.3722647964,255980.67595454023,47.6420641,20.1873111
43157,Szendro,3.60874,774777.3892377391,341315.43375412223,48.403003399999996,20.7324798
43158,Rudabanya,3.39585,766696.3589436034,337896.2076364975,48.373781,20.6224508
43356,Dor,2.840733,518506.9558225428,251924.08997397553,47.59793970000001,17.298739899999998
43556,Nagykapornak,2.957128,493222.10073385475,165830.5242541479,46.8181906,16.992729399999998
43756,Bozsok,2.515874,456611.1172285427,222976.80817374663,47.3223133,16.488697400000003
43757,Dunaalmas,3.212986,596571.2131217119,265760.2788156649,47.73343660000001,18.3351245
43758,Nadasdladany,3.2427900000000003,588741.927651033,199610.81858316433,47.137771,18.2398735
43956,Nagyrabe,3.295347,822086.2345794574,209220.39529989008,47.2045882,21.3192277
43957,Soly,2.677607,572971.1726907825,198916.2748741554,47.1298676,18.0321042
44156,Noszvaj,3.268812,756686.2424035657,289118.0764254839,47.9369531,20.4753593
44356,Agyagosszergeny,2.9454689999999997,491642.53199917683,253845.58002716023,47.609256,16.9409446
44357,Bukkszentkereszt,3.083503,767948.9274208676,303923.9761181604,48.0681306,20.630073100000004
44556,Szihalom,3.287354,757481.9889248933,271104.2540353205,47.7748385,20.4815867
44557,Szatmarcseke,3.130977,916816.7568598974,310741.16241776955,48.0851966,22.6297402
44558,Bihartorda,2.9527919999999996,824609.557394916,210352.79099410315,47.214106,21.352960500000002
44559,Szatymaz,3.669689,726532.278809896,111284.25639021632,46.3416797,20.0415788
44756,Verpelet,3.581153,738347.415029403,279032.5295362686,47.8490107,20.2279112
44956,Szantod,2.6009729999999998,562869.9336914956,170096.56268370393,46.8693827,17.9045327
45156,Naszaly,3.366796,591156.6115993757,261870.64485502755,47.6979874,18.263462
45157,Palotas,3.197005,691062.2092816393,272551.7858514747,47.7954248,19.5955271
45356,Tofej,2.8331470000000003,478042.59934593353,149501.91240295777,46.66759570000001,16.800045800000003
45357,Annavolgy,2.970812,621367.5383803458,261429.79246796685,47.6960516,18.6659862
45358,Kovagoszolos,3.1010590000000002,578550.4416606846,82573.53903226317,46.0839686,18.1237809
45556,Apaj,3.080987,653016.328235015,196627.22539861748,47.11377879999999,19.0871992
45756,Nyarlorinc,3.3583160000000003,713029.5151656114,168806.3348999802,46.8605244,19.8740931
45956,Jaszladany,3.7568639999999998,734435.8021073987,225151.61632571605,47.3649496,20.1653647
45957,Paka,3.028571,466267.68475479365,141593.38291797973,46.5933335,16.6494169
45958,Palotabozsok,2.960471,618581.0852763717,87219.9931828725,46.1288343,18.6409628
45959,Tunyogmatolcs,3.38507,904606.8877228901,297444.8615362784,47.97065170000001,22.4582423
45960,Vacegres,2.945961,673894.9760518553,259082.2105702781,47.6751335,19.3656575
45961,Igal,3.1166080000000003,564943.8034532049,132842.032642322,46.5345467,17.9386708
45962,Ruzsa,3.4017449999999996,704118.0548432709,105206.97428788566,46.2891982,19.7497405
46156,Ivan,3.103462,488865.9877569308,235237.99234209146,47.44127,16.9107962
46157,Kocser,3.262451,716536.3330111066,184569.37037945812,47.00197410000001,19.9223932
46158,Barand,3.403121,814752.9409135159,218734.39595531288,47.292012,21.2259672
46159,Ricse,3.22037,866895.5940267576,335153.7964115833,48.3232066,21.9724499
46556,Rabapatona,3.3848910000000005,532281.8090100461,255400.92504138526,47.6318338,17.4809501
46557,Benye,3.086716,687201.9590371079,223597.38028049734,47.3553415,19.5398939
46558,Pilisszentlaszlo,3.075182,645631.7721729316,264373.7042148307,47.72314620000001,18.9892166
46756,Varosfold,3.334856,704388.2991747528,163809.69926538377,46.816342,19.760173
46757,Balatonszentgyorgy,3.1942369999999998,516348.6445077874,151257.7892559391,46.692195700000006,17.299987100000006
46758,Vardomb,3.0663259999999997,622228.311176679,100418.13358965631,46.2477218,18.6873621
46956,Lovas,2.641474,567199.4916146158,183818.56441089557,46.9933669,17.958808899999994
46957,Szaszvar,3.3681010000000002,598419.7061512326,103541.819119238,46.2744086,18.378308800000006
46958,Zakanyszek,3.4382260000000002,714632.2833656347,103944.11258636136,46.27690689999999,19.8859953
47156,Novaj,3.143015,757085.9131145042,280104.64413704025,47.8558382,20.4785002
47357,Kurd,3.081347,593809.0510885547,122986.76529080907,46.4489547,18.316134
47556,Batya,3.305996,642863.9941498407,127002.84690556598,46.4874153,18.954523
47756,Kenezlo,3.089552,834729.166124835,320111.6985373393,48.1980342,21.5325344
47956,Keszeg,2.792392,664251.5164543834,276986.3487644421,47.8364445,19.237811999999998
48156,Tiszadob,3.4659769999999996,808121.0428694121,298351.1306163187,48.0094768,21.1668435
48356,Zagyvarekas,3.545554,731745.747751344,214303.00852363274,47.2677137,20.12777
48556,Deg,3.311118,604283.9650390522,170014.21661692162,46.8727995,18.4477565
48756,Bakonykuti,2.127105,585697.8579643095,211620.16174378345,47.2455037,18.198023499999998
48956,Kaloz,3.3805730000000005,606987.8557174763,179156.68627711717,46.9552227,18.4823562
48957,Fehervarcsurgo,3.294687,590881.6956613587,216576.27378997137,47.2905701,18.2658414
48958,Opusztaszer,3.361539,728048.913155442,128590.55300010022,46.4971782,20.0641986
49156,Pand,3.31576,694220.1627719317,223133.2508284541,47.3507322,19.6327453
49157,Tarjanpuszta,2.585461,554986.8322814736,240922.28431185454,47.505322,17.7861413
49158,Veszkeny,2.960471,502498.79123629385,252518.11535208143,47.5998622,17.0857366
49159,Nagyszekely,2.6404810000000003,610233.6880042634,144914.0897694067,46.6473903,18.5279944
49160,Tiszasuly,3.136721,751545.1037242268,228376.66982508142,47.391532700000006,20.3925824
49356,Batmonostor,3.177248,640755.6081910429,84472.73864819677,46.1047946,18.9279168
49357,Zsana,2.876218,697094.6300930183,115216.52986995762,46.37977070000001,19.6596195
49358,Bakonybel,3.0766400000000003,550139.0887434913,213181.90210367847,47.2551092,17.728019600000003
49359,Hosszupalyi,3.7674529999999997,852742.5936941714,231011.91224602258,47.39177,21.7335185
49757,Vacduka,3.135768,662534.9018079675,266770.0669082755,47.7445953,19.2145913
49956,Verteskethely,2.759668,577204.730169337,238386.06595023713,47.4853613,18.0814667
49957,Kolesd,3.169674,614669.5778325549,129436.42489819895,46.5084069,18.5871321
49958,Gyorsag,3.169674,552564.8334696804,249292.79032907612,47.5802453,17.752152300000006
49959,Tiszabezded,3.265996,880073.5543943126,340005.18635249004,48.3622273,22.1525798
50156,Tatahaza,3.0916669999999997,669596.6537537569,92339.68470275805,46.1753439,19.3012323
50157,Ocseny,3.378216000000001,627772.6500326664,107524.82765003282,46.3118597,18.7589115
50158,Kisoroszi,2.980458,646991.8680658651,273776.0069444508,47.8077185,19.007279800000006
50356,Kunszallas,3.214844,703851.0712879052,157606.97707082797,46.7605889,19.7524013
50357,Domos,3.063333,639778.6274224633,268881.4538113092,47.7636231,18.9110928
50556,Beregdaroc,2.866287,908907.6982088208,322839.6301105006,48.1970929,22.5309278
50557,Maroslele,3.311118,749843.9256894764,103374.44569176057,46.2674624,20.3426345
50558,Bokod,3.321391,589317.0502355981,239143.8444561307,47.493412799999994,18.242078600000006
50559,Bogacs,3.3062110000000002,760945.8806050228,285545.71225492575,47.904117600000006,20.5314509
50560,Tinnye,3.206826,629738.0202003588,253038.34559606446,47.6208911,18.7778879
50561,Bolcske,3.451018,644043.7797268218,155108.015068645,46.7402601,18.9695194
50758,Tereske,2.857935,660902.4960325151,289473.4715343345,47.9488126,19.1933853
50958,Orfu,2.97359,581049.3521565683,88557.39456405806,46.1380554,18.1551995
50959,Fajsz,3.2195840000000002,640352.0070856828,119083.92351396845,46.4161452,18.9219733
51158,Szany,3.306425,518627.36097087164,236781.1394623167,47.4617917,17.304832100000002
51159,Kotegyan,3.131939,835812.9057075222,157375.51369558315,46.7347025,21.47905
51160,Csaszar,3.2430380000000003,581586.3305558142,240123.14199119943,47.5014578,18.1393362
51359,Dorgicse,2.396199,549168.6420868571,175457.64228674988,46.9156578,17.7236469
51360,Felpec,2.927883,540771.8724650677,243381.80911983768,47.5252219,17.596871399999994
51558,Nagyborzsony,2.892651,633333.6374421703,288063.15735837247,47.9360037,18.8243865
51758,Mikepercs,3.6467959999999997,844864.3397496166,236217.20657827568,47.4409524,21.6314977
51759,Jeno,3.123525,589469.5609912887,196047.83988623566,47.105789,18.2499452
51760,Tallya,3.279895,812123.4900387527,323591.0218763751,48.2353737,21.229904
51761,Pazmand,3.307282,620434.654917001,215582.7671428028,47.2836305,18.6566197
51762,Gyongyossolymos,3.4730489999999996,716334.414785989,275175.0685821312,47.8169351,19.9332261
51763,Tortel,3.629002,717617.0165675775,197979.22684767717,47.122487,19.9386111
51764,Andocs,3.039017,564027.3255320151,145560.74067472608,46.6488345,17.924340899999994
51765,Szalka,2.786752,618280.3204245636,103436.20953496112,46.2746959,18.6359643
51958,Tes,2.9014580000000003,573033.687506261,213145.70087128898,47.257864,18.030485600000002
51959,Tiszakanyar,3.203305,866428.6994587008,326762.3891493276,48.2479618,21.96194280000001
51960,Tarpa,3.3115419999999998,909233.479537058,312394.02533201047,48.1031244,22.5290514
51961,Pacsa,3.2450189999999997,494245.30696292897,155167.42867112474,46.72254,17.009777399999994
51962,Bogyiszlo,3.341039,632247.3593049778,115445.18774446928,46.3832444,18.8166969
51963,Alap,3.2844309999999997,622366.7004956896,162307.5347971924,46.8044751,18.6854298
51964,Becsehely,3.3151300000000004,476694.7454984774,125077.71224113156,46.4476173,16.7916533
52158,Band,2.828015,553800.8210259666,198325.88947345328,47.1220366,17.7795783
52159,Csabdi,3.067443,616741.9036179777,242196.99342431876,47.522845200000006,18.6058133
52160,Forro,3.385964,801231.8839000349,332984.06850069907,48.3224482,21.08665
52358,Gara,3.3904050000000003,649320.239856395,76621.52078668118,46.034232,19.038691500000002
52558,Kajarpec,3.094122,542999.0096125277,240001.50028859967,47.4951901,17.627257800000006
52758,Dejtar,3.144885,659225.8430802299,299377.354177332,48.0379059,19.1711489
52759,Ikervar,3.2547900000000003,486990.5563207915,209370.05830118485,47.2082081,16.8953858
52760,Holloko,2.5705430000000002,690609.6694512325,295015.1757116207,47.99747410000001,19.591570800000003
52958,Nagyszentjanos,3.252853,561731.9716636356,263485.65423434204,47.70919,17.8711581
53158,Ormenyes,3.0207759999999997,765191.274100148,206319.0408390347,47.1909035,20.5676271
53358,Karancskeszi,3.264109,698469.1925545922,313539.11499783193,48.1635124,19.6989431
53558,Csevharaszt,3.2880260000000003,679127.9140182468,217350.72457466274,47.2995594,19.4326126
53559,Pereszteg,3.1476759999999997,476125.3090820866,252501.53117467422,47.5932256,16.7351763
53560,Makad,3.085291,640803.2931896775,193816.46038237013,47.08843579999999,18.9263252
53561,Dunafalva,2.912753,628734.0536860053,82174.7929780831,46.0838489,18.7725538
53758,Kava,2.788168,690830.5849065596,223659.20261202988,47.3556823,19.5879305
53958,Jankmajtis,3.220631,919006.2501582669,294684.49119350367,47.9400472,22.6491719
54158,Nagyesztergar,3.082426,563572.715134863,215374.58396367898,47.276735,17.9050628
54159,Pecol,2.898725,482016.44169946667,209230.62349695343,47.205703299999996,16.829804100000004
54358,Kajdacs,3.082785,617116.6828541649,135611.17381271377,46.5640794,18.618573100000006
54558,Mosdos,3.00561,568367.6774088017,112667.92755530053,46.3535065,17.9868705
54758,Epol,2.772322,619244.792053421,255962.1357752902,47.6467776,18.638088800000002
54759,Uzsa,2.509202,519763.64922456804,173772.6815224178,46.8953678,17.3381835
54760,Totszerdahely,3.05576,476983.8678464093,119612.78677538632,46.3985503,16.7974625
54761,Csokvaomany,2.925828,748670.1869162308,314425.086248563,48.1657718,20.3738354
55158,Jaszivany,2.607455,740293.5069745822,242727.29809135347,47.5222439,20.2464747
55159,Szabadszentkiraly,2.89487,572123.37412784,74022.64069492806,46.006339600000004,18.042124800000003
55160,Csolyospalos,3.2195840000000002,710832.0386856913,119657.60189747924,46.4186126,19.8387567
55358,Nyirpazony,3.5425769999999996,855385.7681700008,296637.9625013182,47.9808396,21.7990918
55359,Nagyrecse,3.0553779999999997,496778.8698762336,129103.15179165248,46.4887323,17.0516176
55360,Nogradsap,2.9041740000000003,673053.0326547669,277334.5918228413,47.839325099999996,19.3554001
55361,Sarosd,3.521792,619783.2035308834,188681.12551819216,47.04161060000001,18.649821600000006
55362,Kungos,2.70415,583613.0092045171,191688.2707148457,47.066010299999995,18.1734324
55558,Lepseny,3.481299,588914.830630971,183661.19774714354,46.9943177,18.2443158
55559,Jaszalsoszentgyorgy,3.535547,728820.1617507216,225840.74906871075,47.37184570000001,20.0911454
55758,Sarszentlorinc,2.969416,616240.2589423701,142505.76817850425,46.6260581,18.6066341
55958,Bernecebarati,2.9283959999999998,640048.0554128658,299407.81884406286,48.038167,18.9139865
55959,Bujak,3.320354,687221.0400513905,282466.2984722207,47.8848223,19.5450988
56158,Nagykaracsony,3.133858,629227.4122014961,169195.8282736,46.8666921,18.7749966
56159,Rimoc,3.244772,686018.9909188112,299425.3502185241,48.0374052,19.5304259
56160,Boldog,3.4734870000000004,698725.4073223793,251015.32767797128,47.6012001,19.6954291
56161,Szomor,3.0553779999999997,621175.2460449621,249853.19360612592,47.59191989999999,18.6641826
56162,Fulopszallas,3.357554,664660.5195782445,163996.5594716821,46.8200875,19.2395832
56163,Mezonyarad,3.185259,772033.5722475471,280539.20452990604,47.85711420000001,20.6783222
56358,Arlo,3.566555,739752.2983901835,315492.5135427123,48.176668,20.2541957
56359,Csokmo,3.244524,820788.9388615442,190140.72319606587,47.0333646,21.2948743
56558,Tar,3.265761,702055.2932188881,289924.3462202996,47.9508763,19.7443174
56958,Vasarosdombo,3.037426,579495.2528539797,107195.3409949282,46.305546,18.132263000000002
57158,Gadoros,3.55084,768761.1553509219,148549.19063716364,46.6706884,20.599598
57358,Penc,3.1942369999999998,665276.3686339406,273206.47500971163,47.8024259,19.2513708
57359,Babarc,2.8627279999999997,611527.455716121,73338.82373129971,46.003599,18.5508466
57558,Tardos,3.198657,604747.39235454,257903.07708939837,47.6633891,18.4449341
57758,Tolcsva,3.225568,828236.5268733385,329337.39285480627,48.2827761,21.4490584
57759,Varoslod,3.144263,544328.6706738365,201159.34822752545,47.14606989999999,17.654097600000004
57958,Kemecse,3.675412,855015.6912733092,306304.5921825618,48.0678349,21.7986929
58158,Sarkadkeresztur,3.174641,828103.137412487,165329.9263597729,46.8083398,21.3813249
58159,Bana,3.201124,565276.069994042,256908.0867503849,47.6505062,17.9196468
58358,Szentlorinckata,3.2743889999999998,703347.5429826231,242253.26096556825,47.5220313,19.7558396
58558,Oreglak,3.203305,541306.3060036174,141117.21685326437,46.6055398,17.6286333
58559,Szeleveny,3.021189,737767.6588316046,162778.80769440348,46.8034945,20.1973333
58758,Neszmely,3.1241779999999997,598848.2408039384,265999.3192455893,47.7357694,18.3654526
58759,Marianosztra,2.960471,636878.4088257015,280135.44426886656,47.864787299999996,18.872066600000004
58958,Pecsely,2.70927,554022.586104355,179767.2680338566,46.9551435,17.7864493
59358,Jaszkiser,3.7130699999999996,738161.8322975707,235715.14378004725,47.4594684,20.2167801
59359,Harkakotony,2.9703470000000003,693308.8862466436,124459.06427932206,46.4631696,19.611278
59360,Vasad,3.278525,676701.0171706021,219853.83006940316,47.322178,19.400671
59361,Porcsalma,3.404492,913258.0355064445,288012.8056336686,47.8824619,22.5682954
59362,Csokako,3.117603,591705.6557159073,223885.623391967,47.3563896,18.2757791
59558,Hernadnemeti,3.533645,793795.0405177097,304844.81866259815,48.0711901,20.9770518
59559,Vaszoly,2.342423,551919.5365986371,178029.65923234046,46.9392057,17.7591997
59560,Becsvolgye,2.885361,469267.166702793,159956.72095763244,46.7592756,16.6812859
59561,Domony,3.3398489999999996,679372.3667259424,256703.3585829791,47.6535146,19.4384419
59562,Hajduszovat,3.482588,833247.8532750362,230222.6796176759,47.39040720000001,21.4750896
59758,Kek,3.2869050000000004,860719.6455105741,311747.2198326249,48.1149173,21.8778149
59959,Tiszadada,3.3481099999999997,813257.6644148014,300866.55177990237,48.030817,21.2366013
60158,Totszentmarton,2.9196009999999997,477487.8167795042,122208.01938844199,46.42201770000001,16.803043300000002
60159,Kisgyor,3.216957,772453.4115194686,297587.34945697006,48.0103225,20.6887124
60358,Nagybanhegyes,3.052694,792433.5281147775,125539.61856576266,46.4591053,20.9017461
60558,Agfalva,3.338058,459833.87394437613,263830.7235421579,47.6905324,16.5137872
60559,Osli,2.932474,501799.5380262609,257018.52635588517,47.6401697,17.0749299
60560,Murakeresztur,3.244772,482872.11163111404,115309.02855608362,46.3613481,16.8755522
60561,Nagymagocs,3.4895370000000003,759878.3728688413,138680.55235804623,46.58345170000001,20.4811682
60562,Bugac,3.448552,698548.8011330701,149592.21839358006,46.6888994,19.6821439
60758,Hercegkut,2.795185,833964.8155634566,335441.19952549133,48.3360251,21.5288015
60759,Parad,3.2931410000000003,723468.3793547932,287104.54152925656,47.9234507,20.0304804
60760,Vertesacsa,3.241796,614673.2728737191,225705.8792294713,47.3744031,18.579658
60761,Kislang,3.3703279999999998,599595.1893700446,179773.51204604935,46.9602484,18.3851659
60762,Gamas,2.858537,551592.934125893,142573.25323259097,46.62023789999999,17.7625713
60958,Pusztaszer,3.1702619999999997,721892.2268469795,134347.22957250144,46.5496529,19.9849026
60959,Karacsond,3.4835870000000004,723470.8234908974,264915.01504788466,47.7238977,20.0267964
60960,Abaliget,2.7678979999999997,578081.6950095574,88916.95323114909,46.140978000000004,18.116744
61158,Balatonfokajar,3.124504,586504.35815594,186574.2031531858,47.0202933,18.2122159
61159,Kissikator,2.494155,730611.5138748267,317248.7998369763,48.1936633,20.1316376
61358,Zsadany,3.214579,835710.2218298148,178173.80048695309,46.92174,21.4861925
61558,Balatonudvari,2.49693,555332.7726445696,174218.31121687716,46.9054215,17.804820199999995
61559,Nyirabrany,3.563125,873748.6139152104,249317.42428661225,47.5494817,22.0207822
61758,Kiszombor,3.576572,756505.3158873966,94762.00365239786,46.1889728,20.4270576
61958,Balatonendred,3.1267810000000003,568312.6176189114,166334.84316909921,46.8362401,17.976594199999994
61959,Bodrogolaszi,2.9454689999999997,833306.6785014487,330037.78393974854,48.28765070000001,21.5176284
61960,Segesd,3.391112,519139.7075023176,113500.72691276987,46.353170500000004,17.3472113
61961,Tiszaderzs,3.019532,770122.2657277917,242237.96710111323,47.5130513,20.642349
61962,Szentpeterur,3.019947,496534.82289398497,159093.92718487943,46.7583841,17.038396399999996
61963,Nagybereny,3.129368,582559.5898831707,161933.48328016177,46.7982528,18.163997100000003
62158,Furta,3.0553779999999997,832647.349037375,200978.4784183796,47.127639200000004,21.4552143
62159,Alattyan,3.322426,725454.2738676253,231782.32666010258,47.4256813,20.0475867
62358,Nagyrede,3.490099,710186.737377278,269388.210895227,47.76548820000001,19.8503473
62558,Kehidakustany,3.042969,501039.42904574284,168388.67056501517,46.842999400000004,17.0943015
62758,Ersekhalma,2.804821,655790.5213079428,111529.3852007746,46.3482313,19.1226887
62958,Cigand,3.4284589999999997,860950.2189958848,328073.8401444057,48.2615593,21.8888754
63158,Koronco,3.3077099999999997,535879.0423927499,251498.29798511986,47.5973773,17.529815600000006
63159,Hehalom,2.978637,690344.5621515169,270777.2619854716,47.779509999999995,19.5857856
63358,Palfa,3.1917299999999997,616991.2053346375,152487.02351731726,46.7158855,18.6157181
63359,Szar,3.215109,610131.2421492052,237188.51050995768,47.47742589999999,18.5184841
63360,Artand,2.700704,855765.577399649,201300.5059606407,47.1237274,21.759888600000004
63558,Lovaszi,3.080987,458879.9032210993,137569.90224504465,46.5550763,16.5547314
63559,Kald,3.0128369999999998,498185.86144620203,204163.01918261487,47.1640622,17.044881600000004
63758,Kocsord,3.4423230000000005,899441.2782614691,293708.45466557844,47.9390852,22.386991100000003
63958,Tyukod,3.262925,912284.527670888,284544.4798314562,47.851694,22.5532149
63959,Bate,2.920123,566521.9567501548,113302.93810206022,46.358990399999996,17.962778699999994
63960,Nagykoru,3.217747,756257.1533418028,215303.72930588605,47.2732125,20.451879
64158,Szil,3.085291,513236.6480759204,241299.20149176058,47.5013162,17.2319589
64159,Medina,2.905796,618964.8656240198,125572.13194196249,46.4738585,18.6433566
64358,Pornoapati,2.618048,454277.4007219529,204561.61330615557,47.1560615,16.465888699999994
64558,Baracska,3.4418519999999995,628026.5194533278,215641.05811854167,47.2844533,18.7569741
64559,Csot,2.985875,540925.205060248,225075.80388536304,47.360614700000006,17.603401100000006
64560,Dunaszekcso,3.286007,627733.4172098613,82292.88566809107,46.0848787,18.7596125
64561,Tepe,3.0488299999999997,840827.007077089,222571.09836063092,47.3194564,21.572157
64758,Nagybajom,3.535421,531843.853317727,117598.82605434391,46.3923964,17.511183300000006
64759,Mihalyfa,2.5865869999999997,508750.02042266214,183443.7173373786,46.9800828,17.1906724
64760,Koszarhegy,3.209515,596457.0153888371,194451.65059203986,47.092036,18.3421918
64958,Tiszakeszi,3.3956760000000004,795887.2013749562,273429.65132927976,47.7882813,20.99462
65158,Bony,3.333044,561488.8151741872,257120.96787738142,47.65191779999999,17.869197800000006
65159,Kajaszo,3.023252,625381.8663528551,220324.14808669023,47.3264844,18.7217551
65160,Perocseny,2.4828740000000002,636096.166857791,294644.0438402003,47.9952528,18.8611472
65162,Tibolddaroc,3.15137,768839.5352935618,287552.6073450427,47.9207679,20.6375539
65163,Szarvasgede,2.599883,694627.8875371083,275401.07108184043,47.8208159,19.6434085
65164,Pali,2.537819,508212.1953168344,238470.67408551267,47.4748121,17.166190399999998
65358,Bar,2.727541,624440.968049624,78630.27995572015,46.051814,18.7172495
65359,Buzsak,3.156549,537477.1779078586,145987.1605950137,46.6487053,17.577465300000004
65360,Feketeerdo,2.750508,517895.7565804913,289491.487187612,47.935610600000004,17.2793082
65361,Adacs,3.4297519999999997,719642.632354907,261271.1336564958,47.691546,19.9751962
65558,Somogyszob,3.192846,515112.6081238938,106896.76533225343,46.2929761,17.296827399999998
65559,Szerep,3.177825,808522.1917493511,211381.939022505,47.2274297,21.1410165
65560,Vertesboglar,2.934499,610520.7268502414,231815.83222301397,47.4291239,18.5241296
65561,Olaszliszka,3.22037,827414.8746354537,324956.7905400938,48.2436306,21.4361913
65758,Sarkeresztes,3.171434,597404.8211808354,212291.22019106723,47.2525814,18.3525837
65958,Vajszlo,3.228913,567462.9842042963,57833.705387039256,45.8601705,17.984813
66158,Tenyo,3.187521,544473.1287037971,245030.61783125286,47.5406578,17.6456212
66159,Urhida,3.374015,595920.2298985175,198974.19165521875,47.13267329999999,18.3345777
66160,Hajmasker,3.4862889999999997,571639.5783542815,200557.12038216987,47.1444695,18.014267800000006
66161,Bikal,2.870989,591274.9563228841,109961.45478349393,46.331567,18.284810800000002
66162,Szigetbecse,3.1316189999999997,642543.9351138489,198496.3470078698,47.1305562,18.9491726
66358,Dunasziget,3.157457,523517.2451825179,290025.3237662125,47.9415304,17.354369100000003
66359,Kimle,3.3414339999999996,524483.024084761,277248.3276690551,47.8268335,17.3709629
66558,Olaszfalu,3.028571,563733.0757387573,211694.280074222,47.2436541,17.9078919
66758,Rozsaszentmarton,3.2898120000000004,702042.7925901946,271241.40331887687,47.78285579999999,19.7419306
66759,Bakonszeg,3.064458,831696.7494724285,207832.83665938245,47.18953120000001,21.4454608
66959,Telkibanya,2.744293,820553.4078428354,351674.0885663286,48.48560300000001,21.3544735
66960,Nagynyarad,2.856729,613875.8782512447,66796.19400097319,45.9448762,18.581665
67158,Zsaka,3.188647,831166.675141678,201674.60499911822,47.1343067,21.4359876
67159,Matraverebely,3.31576,704603.7253339465,292420.1953971898,47.9731122,19.7787443
67160,Nyirbeltek,3.4379089999999994,881288.803173287,266338.8387857394,47.699839,22.1297911
67358,Telekgerendas,3.190051,795956.735944863,148210.7569868958,46.66223370000001,20.9547929
67359,Matyus,2.439333,890045.5688221455,331609.0851634274,48.2831601,22.282327600000002
67558,Dudar,3.185825,566565.9978396443,219094.46867620962,47.31058,17.943927600000006
67559,Bucsa,3.312812,797663.5779765185,208523.29722102362,47.2042482,20.9967301
67560,Gyongyoshalasz,3.403292,715046.2298664716,266549.2268584287,47.73948920000001,19.9147492
67561,Bukkszek,2.8331470000000003,734177.3798652297,294524.00442367734,47.988871,20.1751845
67758,Hantos,2.959041,623558.4132763091,183973.36313593216,46.999423799999995,18.6997764
67958,Vamosszabadi,3.21272,545126.5889354639,268624.69866047567,47.7529429,17.648687600000006
67959,Szekkutas,3.3684730000000003,764107.306079345,129968.9001269807,46.5043851,20.5341742
67960,Mindszentgodisa,2.9395189999999998,574831.4919026531,98797.56593074913,46.22949860000001,18.0730903
67961,Jaszjakohalma,3.484157,720914.262953673,242428.20386805956,47.5219388,19.989113600000003
67962,Kazsmark,2.9818189999999998,793010.3704236685,327550.4011549996,48.2754799,20.9740323
68158,Balloszog,3.533772,689811.1088338398,168609.3246772431,46.8605519,19.5695767
68358,Vajta,3.0224279999999997,620754.5109248158,152701.5616446578,46.71799220000001,18.664926
68359,Matraszolos,3.20085,698840.9531513137,289241.4467982507,47.9449844,19.701211800000006
68558,Csepa,3.1861080000000004,732659.8498668412,163012.17266660093,46.8062494,20.1304652
68559,Delegyhaza,3.5532760000000003,651473.2115799218,211527.4177581057,47.247818,19.066912
68758,Borota,3.111934,663545.8229667548,102365.07654426881,46.2656791,19.2231688
68759,Jak,3.413467,462927.95587771985,202612.32543740244,47.141049,16.5807225
68958,Mezoors,3.003461,562124.1340933318,247859.263806318,47.568708799999996,17.8794975
69158,Dregelypalank,3.17406,649750.9610710144,300948.37973739236,48.0520987,19.0440957
69358,Taktaharkany,3.56134,805319.4000211285,307016.05095281824,48.088049,21.1324053
69359,Ladanybene,3.228913,681028.1333456272,187951.78667777375,47.0350187,19.4557131
69360,Senyo,3.147985,861224.1180708697,299286.80409458664,48.0027718,21.8785276
69361,Csengele,3.293804,712872.6929975547,133126.23807029013,46.5395807,19.867134600000004
69362,Izmeny,2.710117,601249.6111004725,107854.21304280001,46.313413399999995,18.4145662
69363,Nagybajcs,2.970812,548013.1051898354,269854.0657590134,47.7644567,17.686893100000006
69364,Somogyjad,3.1947919999999996,547773.4139793416,128323.76022821669,46.4914921,17.715881399999994
69365,Szentpeterfa,2.979093,455142.9270078618,197410.59480339516,47.0920255,16.480394099999998
69366,Murony,3.089198,802114.5187177601,159437.32006816234,46.7618154,21.038963
69367,Tiszajeno,3.215373,733158.6714845793,188025.0345827808,47.0311761,20.1415833
69369,Geszt,2.877371,843048.4658273145,173976.93076707362,46.8819064,21.5807071
69370,Borsosbereny,3.000434,655230.3593188288,292529.11230809893,47.9763628,19.1174909
69371,Nagykamaras,3.1354509999999998,809107.6767609724,127246.54135263317,46.4706907,21.1193128
69372,Tac,3.217221,601692.2683273715,193145.51119075742,47.0806916,18.411286899999997
69373,Juta,3.092018,549021.5114174247,118806.34930761078,46.4060761,17.7342201
69374,Aporka,3.072618,647322.6267836532,209839.12996197562,47.232627,19.0120921
69375,Mesztegnyo,3.133539,525393.7977426576,130192.8403807765,46.50449520000001,17.4239393
69376,Tiszakurt,3.131298,732325.1548821861,171969.40614796185,46.8868615,20.127701100000003
69377,Nekezseny,2.866287,752750.563687596,314701.6674358398,48.1676234,20.4287414
69378,Ciko,2.914343,612342.6994558153,101134.24822416618,46.253679999999996,18.5591237
69379,Visonta,3.051924,723404.0371118172,271119.5742205905,47.779705,20.0269417
69381,Mihalygerge,2.7474119999999997,693619.172022196,317024.2710559386,48.1951964,19.6341042
69382,Ugod,3.152288,540686.2352375154,220345.94571121712,47.3180364,17.601397199999994
69383,Felsoors,3.212454,566762.3513077187,186244.3857182686,47.0151318,17.952615100000006
69384,Dad,3.0051810000000003,588091.5075610531,241915.63808313862,47.5182282,18.2254274
69385,Asvanyraro,3.269046,534125.8573353805,277393.9175903643,47.8299324,17.4996843
69386,Cseteny,3.2741580000000003,570533.5492402517,219771.05491130246,47.3171578,17.9962766
69387,Taplanszentkereszt,3.4178040000000003,471914.94196672033,208731.12039953785,47.198556,16.696725
69388,Tornyospalca,3.3949769999999995,882452.1662667599,329511.6263375952,48.2670948,22.1789783
69389,Kisbagyon,2.643453,690250.6006928079,275661.4333507363,47.8234425,19.5849793
69390,Anarcs,3.2814879999999995,877221.4118655687,319417.37755304197,48.1782578,22.1032718
69391,Etes,3.1501419999999998,699891.3980973135,307587.9918260616,48.1098902,19.717374300000003
69392,Borsodszentgyorgy,3.054996,735949.2509275277,316705.97464144387,48.18809520000001,20.2033107
69393,Kaskantyu,2.966611,675979.7820529137,147513.40693544055,46.671461799999996,19.3869842
69394,Monostorapati,3.031409,536369.8233286748,176715.54718063562,46.9248966,17.555335
69395,Magyardombegyhaz,2.303196,805753.8204355191,117050.53225177695,46.37978920000001,21.0722225
69396,Kisszallas,3.379487,684205.1355742107,104111.52039942279,46.28065529999999,19.4912631
69397,Halmaj,3.267875,795143.427422402,324351.62956105446,48.2462494,21.0016795
69398,Nadasd,3.114611,464758.03875896486,182982.41937337286,46.96506820000001,16.612900099999994
69399,Csanadapaca,3.4178040000000003,790825.9836382691,133697.1478688568,46.53281120000001,20.883318600000006
69400,Pusztamerges,3.088845,699150.8282014218,109526.31099890907,46.3284358,19.6857424
69558,Latrany,3.1329,550452.6485772002,156851.26975597235,46.7484949,17.744575899999994
69559,Magyarnandor,3.054996,672501.61282889,291592.0395916756,47.967568299999996,19.3487659
69560,Kisdorog,2.866287,607653.6988043108,116181.69997192748,46.3887615,18.4969413
69561,Nyalka,2.6637009999999997,556709.7654616332,245173.85909851163,47.54380689999999,17.8081139
69562,Bodvaszilas,3.002166,774389.4682161353,356196.8054031647,48.5368458,20.7315708
69563,Erdotelek,3.501607,745116.0263786736,261090.80490002333,47.6867102,20.3144529
69564,Osi,3.304706,584836.2752885532,200300.45795578355,47.1435993,18.188288399999998
69565,Taktaszada,3.273695,808497.8926511745,309634.9672749514,48.1108216,21.1760084
69566,Redics,2.973128,453728.6854540369,144394.80570773553,46.614942299999996,16.4846742
69567,Szarliget,3.3780339999999995,608284.971687118,241762.01553356912,47.5184474,18.4935586
69568,Surd,2.8014040000000002,489929.3614073682,110499.34296579145,46.3198232,16.968883399999996
69569,Majoshaza,3.20167,646094.8307947634,213380.79342794957,47.2644792,18.9958458
69570,Megyaszo,3.434888,799210.480221948,317906.016328007,48.1873814,21.0541885
69571,Kisnana,2.9969490000000003,732221.7716167278,279392.618548322,47.8530515,20.146141
69572,Kenyeri,2.91169,502420.1582393138,228744.18627397047,47.3860703,17.092601000000002
69573,Zagyvaszanto,3.283979,696698.0277508073,270388.36749508197,47.7755885,19.6705195
69574,Ordas,2.618048,642485.6947695111,143534.082199773,46.6361256,18.949323100000004
69575,Miszla,2.4345689999999998,606810.174690442,143167.79256576605,46.6314672,18.4834395
69576,Tetetlen,3.144263,820590.3585411785,221310.2989056192,47.3136847,21.3040955
69577,Pacin,3.1401939999999997,856532.0154535399,335655.4203617213,48.3311165,21.8330516
69578,Hodasz,3.5181190000000004,885928.3660023457,290669.64544797357,47.9168268,22.2046402
69579,Hosszupereszteg,2.787461,496343.8670396805,196586.47022802025,47.0955027,17.0231836
69580,Csesztreg,2.897627,456427.64805100183,155634.11376139312,46.716788799999996,16.5151365
69581,Nagyberki,3.1634599999999997,569954.5447379936,113087.36531649913,46.3574714,18.007412600000006
69582,Bosarkany,3.3244879999999997,515032.32883349445,262291.51903199876,47.6904548,17.2493747
69583,Haromfa,2.8785220000000002,517172.531973807,85908.26778266796,46.1046252,17.3295434
69585,Rakocziujfalu,3.3014639999999997,742291.592965434,191369.08986464495,47.06004229999999,20.2624113
69586,Tolnanemedi,3.028164,606149.1712469566,152368.15606787888,46.7141878,18.4739246
69587,Kalmanhaza,3.293363,839217.257574596,284141.46809339826,47.8734276,21.5772185
69588,Totvazsony,3.0913150000000003,554192.4507007616,185674.500969108,47.00830120000001,17.7874287
69589,Szolosgyorok,3.090963,545103.9734680274,152442.9329509508,46.7080197,17.675599300000005
69758,Monok,3.192567,806241.3856775147,320849.9874717049,48.2121842,21.1497677
69759,Santos,2.710117,560357.431536403,111733.46355291578,46.344074400000004,17.8829943
69760,Tiszanagyfalu,3.256958,830480.7483295484,308350.67423769267,48.0935241,21.4705176
69761,Puspokszilagy,2.877371,670102.1802728891,266308.27996800456,47.7402533,19.3154773
69762,Banhorvati,3.125481,758114.6885936263,321270.76604262023,48.2258105,20.5024796
69763,Gerendas,3.117603,788694.0571929801,140837.4939507324,46.59747539999999,20.8576904
69764,Rede,3.12969,564687.6016489313,232535.9007549635,47.4312328,17.9165125
69765,Komloska,2.374748,829063.9125093438,335821.3846337553,48.3408217,21.462898100000004
69766,Izsofalva,3.2402990000000003,769113.1432358287,330822.3181030357,48.3097463,20.653100100000003
69767,Karcsa,3.239049,853640.172208178,333360.5965574552,48.31141470000001,21.7929937
69768,Krasznokvajda,2.627366,792198.0008422198,349160.482127109,48.469907299999996,20.9702508
69769,Retkozberencs,3.061829,870268.2880044568,322057.35577021743,48.2043859,22.011198
69770,Balatonszolos,2.79796,557298.4425676006,181074.0358029138,46.9673651,17.8292145
69771,Magyarhertelend,2.7972669999999997,580832.0651826626,94249.67688092565,46.1892361,18.1515426
69772,Kardoskut,2.946943,776967.2899922556,129362.33516204971,46.4966066,20.7015134
69773,Boba,2.906873,509018.4701194279,206178.39626181065,47.18459470000001,17.1870848
69774,Kutaso,2.0,686983.9361677839,289362.8547082561,47.94685870000001,19.5425117
69775,Balatonkeresztur,3.161368,521749.51338663994,151745.36570995758,46.6976457,17.3704438
69776,Kadarkut,3.412124,539429.1904093958,99675.76463310544,46.2324884,17.6140623
69777,Komlod,3.0759119999999998,590775.1454953217,245097.06606411358,47.5470914,18.2606324
69779,Barsonyos,2.868056,565187.0534455623,241174.08070778573,47.5089888,17.921481600000003
69780,Alacska,2.873902,769218.8259069268,320345.5486922406,48.2155393,20.6516274
69781,Prugy,3.3706980000000004,813739.545873438,306424.11267426936,48.0806544,21.2451536
69782,Karancsalja,3.187521,702437.5947144699,310253.62635265297,48.1336594,19.7518849
69783,Bezenye,3.143951,513251.2444772897,292547.341448628,47.9621234,17.2162083
69784,Kacs,2.706718,767085.9257761505,291491.74850955396,47.956505299999996,20.6151528
69785,Acsa,3.159266,675388.4427815627,272141.58285611257,47.79253370000001,19.386298
69786,Magyarcsanad,3.163758,770664.5860557513,92881.80878527694,46.169666,20.6099339
69787,Egerszolat,3.0261240000000003,741262.6818456915,283679.10696537315,47.8903931,20.2678265
69788,Sioagard,3.095518,619704.538654964,116334.0095980263,46.39078789999999,18.6535953
69789,Patak,2.945961,657268.9020266084,297298.21792978095,48.0192328,19.1448732
69790,Szucsi,3.193959,703616.1568093612,273627.81147715054,47.8041906,19.763216600000003
69791,Romonya,2.686636,595252.2038811061,82904.36559844977,46.0885145,18.3396465
